address,beds,baths,type,price,sqft,listing#,sqft_min,sqft_max,sqft_avg,Type,Style,LAT,LONG
50 Orchid Place Dr Room 1 Toronto,1,1,Condo Townhouse Multi-Level,1000,1000-1199,E9416947,1000,1199,1099.5,Condo Townhouse,Multi-Level,43.7931996,-79.23689399999999
330 Village Green Sq 8 Toronto,1,2,Condo Townhouse 3-Storey,1100,1200-1399,E9399099,1200,1399,1299.5,Condo Townhouse,3-Storey,43.7781372,-79.2825076
3 Falaise Rd A2 Toronto,1,1,Condo Townhouse Stacked Townhse,1200,1400-1599,E10431570,1400,1599,1499.5,Condo Townhouse,Stacked Townhse,43.7693181,-79.188958
10 Eddystone Ave 241 Toronto,1,2,Condo Apt 2-Storey,1200,1200-1399,W10407655,1200,1399,1299.5,Condo Apartment,2-Storey,43.7492458,-79.5167052
872 Browns Line 2 Toronto,1,1,Condo Apt Multi-Level,1250,1000-1199,W10423767,1000,1199,1099.5,Condo Apartment,Multi-Level,43.6098799,-79.54930999999999
55 Cedarcroft Blvd 12 Toronto,1,1,Condo Townhouse 2-Storey,1250,1200-1399,C10441325,1200,1399,1299.5,Condo Townhouse,2-Storey,43.7826809,-79.44931319999999
177 Linus Rd 1014 Toronto,1,1,Condo Apt Apartment,1280,900-999,C9295556,900,999,949.5,Condo Apartment,Apartment,43.7913188,-79.3571833
350 Alton Towers Circ 907 Toronto,1+1,1,Condo Apt Apartment,1300,700-799,E9381394,700,799,749.5,Condo Apartment,Apartment,43.8228272,-79.27515439999999
57 Finch Ave 27 Toronto,1,1,Condo Townhouse 2-Storey,1350,900-999,C10884899,900,999,949.5,Condo Townhouse,2-Storey,43.778484,-79.42046069999999
11753 Sheppard Ave E 420 Toronto,1,1,Condo Apt Apartment,1350,1000-1199,E10422806,1000,1199,1099.5,Condo Apartment,Apartment,43.7995769,-79.1483164
E18 Orchid Pl Room 2 Toronto,1,1,Condo Townhouse 3-Storey,1400,1000-1199,E10415851,1000,1199,1099.5,Condo Townhouse,3-Storey,43.7933637,-79.2354938
1121 Bay St 1402 Toronto,1,1,Condo Apt Apartment,1400,1000-1199,C9398305,1000,1199,1099.5,Condo Apartment,Apartment,43.6679864,-79.3885486
1378 Danforth Ave 3 Toronto,1,1,Condo Apt Apartment,1400,600-699,E9396307,600,699,649.5,Condo Apartment,Apartment,43.6825313,-79.3281852
7 Falaise Rd A Toronto,1,1,Condo Townhouse 2-Storey,1400,0-499,E9255134,0,499,249.5,Condo Townhouse,2-Storey,43.76943,-79.18897
420 Lake Shore G02 Blvd W 2nd Bed Toronto,1,1,Condo Townhouse Stacked Townhse,1450,0-499,C9256479,0,499,249.5,Condo Townhouse,Stacked Townhse,43.6374172,-79.3976572
757 Dovercourt Rd F Toronto,1,1,Condo Apt Bachelor/Studio,1495,0-499,W10929171,0,499,249.5,Condo Apartment,Bachelor/Studio,43.6615607,-79.4294144
909 Bay St 604-S Toronto,1,1,Condo Apt Apartment,1500,1000-1199,C9284109,1000,1199,1099.5,Condo Apartment,Apartment,43.6636895,-79.3866053
17 Bathurst St 2901 Toronto,1+1,1,Room Apartment,1500,500-599,C9282402,500,599,549.5,Room,Apartment,43.6376464,-79.39901110000001
3 Sudbury St 302 Toronto,1,1,Condo Townhouse Stacked Townhse,1500,700-799,C9752090,700,799,749.5,Condo Townhouse,Stacked Townhse,43.6410782,-79.41809479999999
6A Leaside Park Dr Toronto,1,2,Room 3-Storey,1500,2500-2749,C10432649,2500,2749,2624.5,Room,3-Storey,43.7027843,-79.3502601
1378 Danforth Ave 2 Toronto,1,1,Condo Apt Apartment,1500,600-699,E9396304,600,699,649.5,Condo Apartment,Apartment,43.6825313,-79.3281852
10 Capreol Crt 1057 Toronto,1,2,Condo Apt Apartment,1500,600-699,C9514453,600,699,649.5,Condo Apartment,Apartment,43.6401979,-79.3959363
57 St Joseph St 1123 Toronto,1,1,Shared Room Apartment,1500,0-499,C10408062,0,499,249.5,Room,Apartment,43.6654292,-79.3880303
10 York St 1107 Toronto,1,1,Condo Apt Apartment,1500,600-699,C9344480,600,699,649.5,Condo Apartment,Apartment,43.6411454,-79.38131249999999
104 Regent St Toronto,1,1,Condo Townhouse 2-Storey,1550,1400-1599,C10404949,1400,1599,1499.5,Condo Townhouse,2-Storey,43.6826073,-79.4704546
99 Broadway Ave 2709 Toronto,1,1,Condo Apt Apartment,1590,600-699,C10419429,600,699,649.5,Condo Apartment,Apartment,43.7105663,-79.3932957
827 Albion Rd Toronto,1,1,Upper Level Apartment,1600,500-599,W10291582,500,599,549.5,Upper Level,Apartment,43.7341947,-79.55953099999999
49 East Liberty St 2603 Toronto,1,1,Condo Apt Apartment,1600,800-899,C10781910,800,899,849.5,Condo Apartment,Apartment,43.63883,-79.41163499999999
21 Carlton St 1205 Toronto,1,2,Room Apartment,1650,900-999,C9419501,900,999,949.5,Room,Apartment,43.6612321,-79.3819474
60 Ann O'reilly Rd 260 Toronto,1,1,Condo Apt Apartment,1650,1200-1399,C9513758,1200,1399,1299.5,Condo Apartment,Apartment,43.774404,-79.3294289
47 Mutual St 802 Toronto,1,1,Condo Apt Apartment,1650,900-999,C9512857,900,999,949.5,Condo Apartment,Apartment,43.6549839,-79.3746244
57 St Joseph St 313 Toronto,1,1,Condo Apt Apartment,1650,1000-1199,C9398764,1000,1199,1099.5,Condo Apartment,Apartment,43.6654292,-79.3880303
25 Adra Grado Way 1026 Br Toronto,1,1,Condo Apt Apartment,1680,1000-1199,C10418575,1000,1199,1099.5,Condo Apartment,Apartment,43.7763756,-79.3659472
45 Charles St E 2312 Toronto,1,1,Condo Apt Apartment,1700,800-899,C10279421,800,899,849.5,Condo Apartment,Apartment,43.6689111,-79.383977
25 Carlton St 2007 Toronto,1,1,Condo Apt Apartment,1700,800-899,C10420328,800,899,849.5,Condo Apartment,Apartment,43.6612664,-79.38159279999999
70 Forest Manor Rd 3308 Toronto,1,1,Condo Apt Apartment,1700,1000-1199,C10412749,1000,1199,1099.5,Condo Apartment,Apartment,43.7745395,-79.3449495
32 Townsend Rd Toronto,1,1,Condo Townhouse 3-Storey,1750,500-599,C9344699,500,599,549.5,Condo Townhouse,3-Storey,43.8107609,-79.35724929999999
330 Richmond St W 603 Toronto,1,1,Condo Apt Apartment,1770,500-599,C9513282,500,599,549.5,Condo Apartment,Apartment,43.6489309,-79.3927925
1446 Yonge St 7 Toronto,1,1,Condo Apt Bachelor/Studio,1795,0-499,C10441502,0,499,249.5,Condo Apartment,Bachelor/Studio,43.6875198,-79.3940197
750 Bay St 1110 Toronto,1,1,Condo Apt Apartment,1800,800-899,C9368047,800,899,849.5,Condo Apartment,Apartment,43.6596664,-79.38605749999999
195 McCaul St 1114 Toronto,1,1,Condo Apt Apartment,1800,0-499,C10414508,0,499,249.5,Condo Apartment,Apartment,43.6567194,-79.39214460000001
448 Spadina Rd 106 Toronto,1,1,Other Apartment,1845,500-599,C9419486,500,599,549.5,Other,Apartment,43.6892777,-79.4133196
448 Spadina Rd 407 Toronto,1,1,Other Apartment,1845,500-599,C10415271,500,599,549.5,Other,Apartment,43.6892777,-79.4133196
8 Cumberland St 4702 Toronto,1,1,Condo Apt Apartment,1850,700-799,C9395205,700,799,749.5,Condo Apartment,Apartment,43.6710845,-79.38778730000001
90 Glen Everest Rd 308 Toronto,1,1,Condo Apt Apartment,1850,0-499,E9768654,0,499,249.5,Condo Apartment,Apartment,43.7031342,-79.25277299999999
191 St George St 907 Toronto,1,1,Condo Apt Apartment,1850,600-699,C10416131,600,699,649.5,Condo Apartment,Apartment,43.67154410000001,-79.40108219999999
55 Bremner Blvd 3207 Toronto,1,1,Condo Apt Apartment,1850,800-899,C10422353,800,899,849.5,Condo Apartment,Apartment,43.642884,-79.3804767
191 St George St 707 Toronto,1,1,Condo Apt Apartment,1850,600-699,C10414485,600,699,649.5,Condo Apartment,Apartment,43.67154410000001,-79.40108219999999
1 Falaise Rd 101 Toronto,1,1,Condo Apt Apartment,1850,0-499,E10431104,0,499,249.5,Condo Apartment,Apartment,43.7693451,-79.1887643
2191 Yonge St 811 Toronto,1,1,Condo Apt Apartment,1880,1000-1199,C9400140,1000,1199,1099.5,Condo Apartment,Apartment,43.70559790000001,-79.397714
2 Kingston Rd 16 Toronto,1,1,Co-Op Apt Apartment,1900,700-799,E10417226,700,799,749.5,Co-Op Apartment,Apartment,43.7567385,-79.2001641
126 Dundas St E 205 Toronto,1,1,Upper Level Apartment,1900,500-599,C9382446,500,599,549.5,Upper Level,Apartment,43.6567816,-79.37641789999999
4 Kingston Rd 39 Toronto,1,1,Co-Op Apt Apartment,1900,700-799,E9770105,700,799,749.5,Co-Op Apartment,Apartment,43.74378900000001,-79.21098839999999
12 Kingston Rd 77 Toronto,1,1,Co-Op Apt Apartment,1900,700-799,E9382560,700,799,749.5,Co-Op Apartment,Apartment,43.7575665,-79.19937399999999
195 McCaul St 219 Toronto,1,1,Condo Apt Apartment,1900,0-499,C10421461,0,499,249.5,Condo Apartment,Apartment,43.6567194,-79.39214460000001
120 Parliament St 1307 Toronto,1,1,Condo Apt Apartment,1900,0-499,C9512638,0,499,249.5,Condo Apartment,Apartment,43.6537663,-79.36406769999999
156 Kingston Rd 10 Toronto,1,1,Condo Apt Apartment,1900,600-699,E10440918,600,699,649.5,Condo Apartment,Apartment,43.6711272,-79.3113905
156 Kingston Rd 306 Toronto,1,1,Condo Apt Apartment,1900,600-699,E9465244,600,699,649.5,Condo Apartment,Apartment,43.6711272,-79.3113905
10 Kingston Rd 92 Toronto,1,1,Condo Apt Apartment,1900,700-799,E9236039,700,799,749.5,Condo Apartment,Apartment,43.6683204,-79.31227299999999
15 Fort York Blvd 4503 Toronto,1,1,Condo Apt Apartment,1900,800-899,C9509921,800,899,849.5,Condo Apartment,Apartment,43.6398873,-79.3938891
18 Yorkville Ave 505 Toronto,1+0,1,Condo Apt Apartment,1900,0-499,C10416994,0,499,249.5,Condo Apartment,Apartment,43.6720014,-79.3879279
156 Kingston Rd 216 Toronto,1,1,Condo Apt Apartment,1900,600-699,E9506710,600,699,649.5,Condo Apartment,Apartment,43.6711272,-79.3113905
39 Brant St 716 Toronto,1,1,Condo Apt Apartment,1900,0-499,C10414582,0,499,249.5,Condo Apartment,Apartment,43.6464821,-79.39809850000002
2135 Avenue Rd 102 Toronto,1,0,Other Apartment,1925,500-599,C9399205,500,599,549.5,Other,Apartment,43.7060864,-79.4097176
414 Jarvis St E 104 Toronto,1,1,Co-Op Apt Apartment,1930,500-599,C9416198,500,599,549.5,Co-Op Apartment,Apartment,43.6646874,-79.3783718
414 Jarvis St E 207 Toronto,1,1,Co-Op Apt Apartment,1930,500-599,C9390221,500,599,549.5,Co-Op Apartment,Apartment,43.6646874,-79.3783718
1 Triller Ave 207 Toronto,1,1,Condo Apt Apartment,1945,500-599,W9767885,500,599,549.5,Condo Apartment,Apartment,43.6379179,-79.4432703
195 McCaul St 1309 Toronto,1,1,Condo Apt Apartment,1950,0-499,C10426054,0,499,249.5,Condo Apartment,Apartment,43.6567194,-79.39214460000001
77 Shuter St 2015 Toronto,1,1,Condo Apt Bachelor/Studio,1950,0-499,C10424330,0,499,249.5,Condo Apartment,Bachelor/Studio,43.6549921,-79.375121
2362 Islington Ave 14 Toronto,1,1,Comm Element Condo 2-Storey,1950,600-699,W9379783,600,699,649.5,Common Element Condo,2-Storey,43.7193014,-79.557535
127 Broadway Ave 302 Toronto,1,1,Condo Apt Apartment,1950,0-499,C10422618,0,499,249.5,Condo Apartment,Apartment,43.7103794,-79.3921761
781 St Clair Ave W 5 Toronto,1,1,Other Apartment,1950,0-499,C10874895,0,499,249.5,Other,Apartment,43.6807352,-79.4291367
500 Wilson Ave 637 Toronto,1,1,Condo Apt Apartment,1950,0-499,C10707946,0,499,249.5,Condo Apartment,Apartment,43.7353752,-79.4454727
127 Broadway Ave 1507 Toronto,1,1,Condo Apt Apartment,1950,500-599,C10433377,500,599,549.5,Condo Apartment,Apartment,43.7103794,-79.3921761
117 Broadway Ave 308 Toronto,1,1,Condo Apt Apartment,1975,0-499,C10707743,0,499,249.5,Condo Apartment,Apartment,43.71035699999999,-79.3925946
420 Eglinton Ave E 301 Toronto,1,1,Condo Apt Apartment,1975,500-599,C10431315,500,599,549.5,Condo Apartment,Apartment,43.709819,-79.3852845
191 St George St 804 Toronto,1,1,Condo Apt Apartment,1975,600-699,C9374627,600,699,649.5,Condo Apartment,Apartment,43.67154410000001,-79.40108219999999
2515 Eglinton Ave W 301 Toronto,1,1,Condo Apt Apartment,1975,600-699,W9012948,600,699,649.5,Condo Apartment,Apartment,43.69092149999999,-79.4705841
77 SHUTER St 1915 Toronto,1,1,Condo Apt Apartment,1980,0-499,C10411546,0,499,249.5,Condo Apartment,Apartment,43.6549921,-79.375121
127 Broadway Ave 1610 Toronto,1,1,Condo Apt Apartment,1980,500-599,C10429969,500,599,549.5,Condo Apartment,Apartment,43.7103794,-79.3921761
117 BROADWAY Ave N 311 Toronto,1,1,Condo Apt Apartment,1995,0-499,C10430564,0,499,249.5,Condo Apartment,Apartment,43.71035699999999,-79.3925946
1 Triller Ave 308 Toronto,1,1,Condo Apt Apartment,1995,500-599,W9767851,500,599,549.5,Condo Apartment,Apartment,43.6379179,-79.4432703
630 Queen St E 416 Toronto,1,1,Condo Apt Apartment,1995,500-599,E10411321,500,599,549.5,Condo Apartment,Apartment,43.6584078,-79.35265009999999
1401 Dupont St 227 Toronto,1,1,Condo Apt Apartment,1999,500-599,W9262276,500,599,549.5,Condo Apartment,Apartment,43.666383,-79.44674289999999
105 The Queensway 409 Toronto,1,1,Condo Apt Apartment,1999,500-599,W10427461,500,599,549.5,Condo Apartment,Apartment,43.6358626,-79.471413
9 Croham Rd 215 Toronto,1,1,Condo Apt Apartment,1999,500-599,W10423955,500,599,549.5,Condo Apartment,Apartment,43.69309699999999,-79.46394409999999
9 Croham Rd 314 Toronto,1,1,Condo Apt Apartment,1999,500-599,W10423930,500,599,549.5,Condo Apartment,Apartment,43.69309699999999,-79.46394409999999
2895 Bathurst St 309 Toronto,1,1,Co-Op Apt Apartment,1999,700-799,C10428584,700,799,749.5,Co-Op Apartment,Apartment,43.71477669999999,-79.4283451
3 Swift Dr 409 Toronto,1,1,Other Apartment,2000,700-799,C10424653,700,799,749.5,Other,Apartment,43.7266588,-79.3178203
219 Dundas St E 2215 Toronto,1,1,Condo Apt Apartment,2000,500-599,C10273551,500,599,549.5,Condo Apartment,Apartment,43.657581,-79.37289
251 Jarvis St 318 Toronto,1,1,Condo Apt Apartment,2000,0-499,C10427807,0,499,249.5,Condo Apartment,Apartment,43.65737670000001,-79.3744501
1401 Dupont St 123 Toronto,1,1,Co-Ownership Apt Apartment,2000,500-599,W9393500,500,599,549.5,Co-Ownership Apartment,Apartment,43.666383,-79.44674289999999
887 bay St 1612 Toronto,1+1,1,Comm Element Condo Apartment,2000,1000-1199,C10428088,1000,1199,1099.5,Common Element Condo,Apartment,43.6629706,-79.3861599
195 McCaul St 419 Toronto,1,1,Condo Apt Apartment,2000,0-499,C9416149,0,499,249.5,Condo Apartment,Apartment,43.6567194,-79.39214460000001
399 Dupont St 202 Toronto,1,1,Condo Apt Apartment,2000,0-499,C9923406,0,499,249.5,Condo Apartment,Apartment,43.673342,-79.41219389999999
117 Broadway Ave 312 Toronto,1,1,Condo Apt Apartment,2000,500-599,C10421088,500,599,549.5,Condo Apartment,Apartment,43.71035699999999,-79.3925946
230 Simcoe St 2213 Toronto,1,1,Condo Apt Apartment,2000,0-499,C10432517,0,499,249.5,Condo Apartment,Apartment,43.65328239999999,-79.3889093
65 St Mary St 2502 Toronto,1,1,Condo Apt Apartment,2000,800-899,C9392190,800,899,849.5,Condo Apartment,Apartment,43.6672065,-79.389162
20 Meadowglen Pl 634 Toronto,1,1,Condo Apt Apartment,2000,500-599,E10400941,500,599,549.5,Condo Apartment,Apartment,43.77462939999999,-79.23061059999999
127 Broadway Ave 1006 Toronto,1,1,Condo Apt Apartment,2000,500-599,C10422638,500,599,549.5,Condo Apartment,Apartment,43.7103794,-79.3921761
896 Eglinton Ave E 110 Toronto,1,1,Condo Apt Apartment,2000,600-699,C10403078,600,699,649.5,Condo Apartment,Apartment,43.7142556,-79.36301879999999
1195 The Queensway 209 Toronto,1,1,Condo Apt Apartment,2000,500-599,W10407681,500,599,549.5,Condo Apartment,Apartment,43.62163,-79.52248
1195 The Queensway 208 Toronto,1,1,Condo Apt Apartment,2000,500-599,W10412593,500,599,549.5,Condo Apartment,Apartment,43.62163,-79.52248
230 Simcoe St 2220 Toronto,1,1,Condo Apt Apartment,2000,0-499,C10845423,0,499,249.5,Condo Apartment,Apartment,43.65328239999999,-79.3889093
1401 Dupont St 232 Toronto,1,1,Co-Op Apt Apartment,2000,500-599,W9393114,500,599,549.5,Co-Op Apartment,Apartment,43.666383,-79.44674289999999
1407 Dupont St 202 Toronto,1,1,Co-Op Apt Apartment,2000,500-599,W10440524,500,599,549.5,Co-Op Apartment,Apartment,43.6662245,-79.447608
165 Cosburn Ave 602 Toronto,1,1,Condo Apt Apartment,2000,800-899,E10441771,800,899,849.5,Condo Apartment,Apartment,43.6897625,-79.345519
719 Lawrence Ave W 49 Toronto,1,1,Condo Townhouse 2-Storey,2000,600-699,W9385544,600,699,649.5,Condo Townhouse,2-Storey,43.7149333,-79.4486084
103 The Queensway 1211 Toronto,1,1,Condo Apt Apartment,2000,0-499,W10404583,0,499,249.5,Condo Apartment,Apartment,43.6362926,-79.47046279999999
127 Broadway Ave 616S Toronto,1,1,Condo Apt Apartment,2000,500-599,C10422614,500,599,549.5,Condo Apartment,Apartment,43.7103794,-79.3921761
11 Wincott Dr 602 Toronto,1,1,Condo Apt Apartment,2000,900-999,W10431061,900,999,949.5,Condo Apartment,Apartment,43.6953232,-79.550889
500 Wilson Ave 627 Toronto,1+1,1,Condo Apt Apartment,2000,0-499,C10421917,0,499,249.5,Condo Apartment,Apartment,43.7353752,-79.4454727
195 McCaul St 603 Toronto,1,1,Condo Apt Apartment,2000,500-599,C9391768,500,599,549.5,Condo Apartment,Apartment,43.6567194,-79.39214460000001
130 River St 3006 Toronto,1,1,Comm Element Condo Bachelor/Studio,2000,0-499,C9418078,0,499,249.5,Common Element Condo,Bachelor/Studio,43.6615739,-79.3586529
117 Broadway Ave 406 Toronto,1,1,Condo Apt Apartment,2000,500-599,C10429677,500,599,549.5,Condo Apartment,Apartment,43.71035699999999,-79.3925946
126 Dundas St E 202 Toronto,1,1,Upper Level Apartment,2000,500-599,C10402964,500,599,549.5,Upper Level,Apartment,43.656325,-79.380903
425 front St E 704 Toronto,1,1,Condo Apt Apartment,2000,0-499,C9418401,0,499,249.5,Condo Apartment,Apartment,43.6526799,-79.35710999999999
230 Simcoe St 2121 Toronto,1,1,Condo Apt Apartment,2000,0-499,C10429351,0,499,249.5,Condo Apartment,Apartment,43.65328239999999,-79.3889093
30 Gloucester St 1903 Toronto,1,1,Co-Ownership Apt Apartment,2000,600-699,C10424393,600,699,649.5,Co-Ownership Apartment,Apartment,43.6673514,-79.3837922
90 Glen Everest Rd 704 Toronto,1,1,Condo Apt Apartment,2000,0-499,E10423301,0,499,249.5,Condo Apartment,Apartment,43.7031342,-79.25277299999999
1401 Dupont St 206 Toronto,1+1,1,Condo Apt Apartment,2000,600-699,W9800625,600,699,649.5,Condo Apartment,Apartment,43.666383,-79.44674289999999
127 Broadway Ave 614S Toronto,1,1,Condo Apt Apartment,2000,500-599,C10430936,500,599,549.5,Condo Apartment,Apartment,43.7103794,-79.3921761
629 King St W 710 Toronto,1,1,Condo Apt Apartment,2000,500-599,C10415747,500,599,549.5,Condo Apartment,Apartment,43.644001,-79.4015398
68 Corporate Dr 1523 Toronto,1,1,Co-Op Apt Apartment,2000,600-699,E10429428,600,699,649.5,Co-Op Apartment,Apartment,43.780487,-79.250693
230 Simcoe St 2211 Toronto,1+0,1,Condo Apt Apartment,2000,0-499,C10429881,0,499,249.5,Condo Apartment,Apartment,43.65328239999999,-79.3889093
195 McCaul St 1214 Toronto,1,1,Condo Apt Apartment,2000,0-499,C10416884,0,499,249.5,Condo Apartment,Apartment,43.6567194,-79.39214460000001
2470 Eglinton Ave W 106 Toronto,1,1,Condo Apt Apartment,2000,700-799,W10874727,700,799,749.5,Condo Apartment,Apartment,43.6924995,-79.4683404
215 Queen St W 1406 Toronto,1,1,Condo Apt Apartment,2000,0-499,C9418929,0,499,249.5,Condo Apartment,Apartment,43.6504655,-79.3878063
2737 Keele St 215 Toronto,1,1,Condo Apt Apartment,2000,500-599,W9377439,500,599,549.5,Condo Apartment,Apartment,43.7257993,-79.48060339999999
195 McCaul St 1414 Toronto,1,1,Condo Apt Apartment,2000,0-499,C10430477,0,499,249.5,Condo Apartment,Apartment,43.6567194,-79.39214460000001
319 Jarvis St 2005 Toronto,1,1,Condo Apt Apartment,2025,0-499,C9356775,0,499,249.5,Condo Apartment,Apartment,43.6597863,-79.3753128
270 Dufferin St N 922 Toronto,1,1,Condo Apt Apartment,2050,0-499,C9874033,0,499,249.5,Condo Apartment,Apartment,43.6384128,-79.4276448
117 Broadway Ave 404 Toronto,1,1,Condo Apt Apartment,2050,500-599,C10426144,500,599,549.5,Condo Apartment,Apartment,43.71035699999999,-79.3925946
127 Broadway Ave N 709 S Toronto,1,1,Condo Apt Apartment,2050,500-599,C10418904,500,599,549.5,Condo Apartment,Apartment,43.7103794,-79.3921761
500 Wilson Ave 619 Toronto,1,1,Condo Apt Apartment,2050,0-499,C10415561,0,499,249.5,Condo Apartment,Apartment,43.7353752,-79.4454727
425 Front St E 803 Toronto,1,1,Condo Apt Apartment,2050,0-499,C9508499,0,499,249.5,Condo Apartment,Apartment,43.6526799,-79.35710999999999
251 Jarvis St 420 Toronto,1,1,Condo Apt Apartment,2050,500-599,C10707907,500,599,549.5,Condo Apartment,Apartment,43.65737670000001,-79.3744501
117 Broadway Ave 512 Toronto,1,1,Condo Apt Apartment,2050,500-599,C10422814,500,599,549.5,Condo Apartment,Apartment,43.71035699999999,-79.3925946
215 Queen St W 1106 Toronto,1,1,Condo Apt Apartment,2050,0-499,C9393977,0,499,249.5,Condo Apartment,Apartment,43.6504655,-79.3878063
68 Shuter St 1601 Toronto,1,1,Condo Apt Apartment,2050,500-599,C10412058,500,599,549.5,Condo Apartment,Apartment,43.6551135,-79.3757349
629 King St W 1318 Toronto,1,1,Condo Apt Apartment,2050,0-499,C10406137,0,499,249.5,Condo Apartment,Apartment,43.644001,-79.4015398
117 BROADWAY Ave N 611 Toronto,1,1,Condo Apt Apartment,2050,0-499,C10442681,0,499,249.5,Condo Apartment,Apartment,43.71035699999999,-79.3925946
29 Singer Crt 1906 Toronto,1,1,Condo Apt Apartment,2050,0-499,C9512859,0,499,249.5,Condo Apartment,Apartment,43.7692161,-79.3688897
270 Dufferin St 325 Toronto,1,1,Condo Apt Apartment,2050,0-499,W9375222,0,499,249.5,Condo Apartment,Apartment,43.6384128,-79.4276448
117 Broadway Ave 606 Toronto,1,1,Condo Apt Apartment,2050,500-599,C10430707,500,599,549.5,Condo Apartment,Apartment,43.71035699999999,-79.3925946
1285 Dupont St N 2108 Toronto,1,1,Condo Apt Apartment,2050,0-499,W9512984,0,499,249.5,Condo Apartment,Apartment,43.66777390000001,-79.4428166
1285 DuPont St 2707 Toronto,1,1,Condo Apt Apartment,2050,500-599,W10874939,500,599,549.5,Condo Apartment,Apartment,43.66777390000001,-79.4428166
117 Broadway Ave 604 Toronto,1,1,Condo Apt Apartment,2050,500-599,C10416431,500,599,549.5,Condo Apartment,Apartment,43.71035699999999,-79.3925946
195 McCaul St 708 Toronto,1,1,Condo Apt Apartment,2050,500-599,C9394844,500,599,549.5,Condo Apartment,Apartment,43.6567194,-79.39214460000001
251 Jarvis St 3001 Toronto,1,1,Condo Apt Apartment,2050,0-499,C10768546,0,499,249.5,Condo Apartment,Apartment,43.65737670000001,-79.3744501
500 Wilson Ave 727 Toronto,1+1,1,Condo Apt Apartment,2050,0-499,C10440532,0,499,249.5,Condo Apartment,Apartment,43.7353752,-79.4454727
35 Hayden St 615 Toronto,1,1,Condo Apt Apartment,2050,500-599,C9768083,500,599,549.5,Condo Apartment,Apartment,43.6696226,-79.3847443
215 Queen St W 1915 Toronto,1,1,Condo Apt Multi-Level,2050,0-499,C10416663,0,499,249.5,Condo Apartment,Multi-Level,43.6504655,-79.3878063
42 Charles St E 703 Toronto,1,1,Condo Apt Apartment,2050,0-499,C9372793,0,499,249.5,Condo Apartment,Apartment,43.6695837,-79.38416389999999
127 Broadway Ave 1310 Toronto,1,1,Condo Apt Apartment,2050,500-599,C10428810,500,599,549.5,Condo Apartment,Apartment,43.7103794,-79.3921761
251 Jarvis St 934 Toronto,1,1,Condo Apt Apartment,2050,500-599,C10428833,500,599,549.5,Condo Apartment,Apartment,43.65737670000001,-79.3744501
2789 Eglinton Ave E 434 Toronto,1,1,Condo Townhouse Stacked Townhse,2050,500-599,E10446888,500,599,549.5,Condo Townhouse,Stacked Townhse,43.7370771,-79.2453001
1285 Dupont St 808 Toronto,1,1,Condo Apt Apartment,2050,500-599,W9419964,500,599,549.5,Condo Apartment,Apartment,43.66777390000001,-79.4428166
195 McCaul St 312 Toronto,1+1,1,Condo Apt Loft,2050,500-599,C9349647,500,599,549.5,Condo Apartment,Loft,43.6567194,-79.39214460000001
500 Dupont St 612 Toronto,1,1,Condo Apt Apartment,2050,0-499,C9382946,0,499,249.5,Condo Apartment,Apartment,43.6729067,-79.4161383
1442 Lawrence Ave W 1011 Toronto,1,1,Condo Apt Apartment,2075,700-799,W9399446,700,799,749.5,Condo Apartment,Apartment,43.708819,-79.4803635
1285 Dupont St 706 Toronto,1,1,Condo Apt Apartment,2075,500-599,W9375153,500,599,549.5,Condo Apartment,Apartment,43.66777390000001,-79.4428166
127 Broadway Ave N 610 S Toronto,1,1,Condo Apt Apartment,2075,500-599,C10442871,500,599,549.5,Condo Apartment,Apartment,43.7103794,-79.3921761
181 Dundas St E 3008 Toronto,1,1,Condo Apt Apartment,2075,0-499,C10415368,0,499,249.5,Condo Apartment,Apartment,43.6570251,-79.374008
219 Dundas St E 1115 Toronto,1,1,Condo Apt Apartment,2080,500-599,C10845515,500,599,549.5,Condo Apartment,Apartment,43.657581,-79.37289
165 Canon Jackson Dr 508 Toronto,1,1,Condo Apt Apartment,2090,500-599,W9416321,500,599,549.5,Condo Apartment,Apartment,43.6968454,-79.4744087
721 Lawrence Ave W 67 Toronto,1,2,Condo Townhouse Stacked Townhse,2090,500-599,W9381561,500,599,549.5,Condo Townhouse,Stacked Townhse,43.7148522,-79.4491496
108 PETER St 815 Toronto,1,1,Condo Apt Apartment,2095,0-499,C10874894,0,499,249.5,Condo Apartment,Apartment,43.6476915,-79.3933074
1 Falaise Rd 405 Toronto,1,1,Condo Apt Apartment,2099,500-599,E10428974,500,599,549.5,Condo Apartment,Apartment,43.7693451,-79.1887643
392 Jane St 102 Toronto,1,1,Condo Apt Apartment,2099,700-799,W10413206,700,799,749.5,Condo Apartment,Apartment,43.6579948,-79.48821509999999
127 Broadway Ave 415 Toronto,1,1,Condo Apt Apartment,2100,500-599,C10417675,500,599,549.5,Condo Apartment,Apartment,43.7103794,-79.3921761
1285 Dupont St 2208 Toronto,1,1,Condo Apt Loft,2100,500-599,W10420818,500,599,549.5,Condo Apartment,Loft,43.66777390000001,-79.4428166
1461 Lawrence Ave W 1303 Toronto,1,1,Condo Apt Apartment,2100,0-499,W10929178,0,499,249.5,Condo Apartment,Apartment,43.7074982,-79.4797966
150 Sudbury St 812 Toronto,1,1,Condo Apt Loft,2100,500-599,C10408606,500,599,549.5,Condo Apartment,Loft,43.6415681,-79.42419199999999
320 Richmond St E 1518 Toronto,1,1,Condo Apt Apartment,2100,500-599,C9370472,500,599,549.5,Condo Apartment,Apartment,43.6535819,-79.3687903
319 Jarvis St 4305 Toronto,1,1,Condo Apt Apartment,2100,0-499,C9510548,0,499,249.5,Condo Apartment,Apartment,43.6597863,-79.3753128
195 McCaul St 1313 Toronto,1,1,Condo Apt Apartment,2100,0-499,C10440951,0,499,249.5,Condo Apartment,Apartment,43.6567194,-79.39214460000001
127 Broadway Ave 1207 Toronto,1,1,Condo Apt Apartment,2100,500-599,C10441539,500,599,549.5,Condo Apartment,Apartment,43.7103794,-79.3921761
2 Gladstone Ave 208 Toronto,1,1,Condo Apt Loft,2100,500-599,C9372776,500,599,549.5,Condo Apartment,Loft,43.6427533,-79.4274355
1195 The Queensway 610 Toronto,1,1,Condo Apt Apartment,2100,500-599,W9416474,500,599,549.5,Condo Apartment,Apartment,43.62163,-79.52248
402 The East Mall 119 Toronto,1,1,Condo Townhouse Stacked Townhse,2100,500-599,W10428574,500,599,549.5,Condo Townhouse,Stacked Townhse,43.6465721,-79.56063080000001
4K Spadina Ave 1018 Toronto,1,1,Condo Apt Apartment,2100,600-699,C10406214,600,699,649.5,Condo Apartment,Apartment,43.6411149,-79.39366969999999
77 Shuter St 2901 Toronto,1,1,Condo Apt Apartment,2100,500-599,C10405715,500,599,549.5,Condo Apartment,Apartment,43.6549921,-79.375121
195 Redpath Ave 1513 Toronto,1,1,Condo Apt Apartment,2100,0-499,C9391094,0,499,249.5,Condo Apartment,Apartment,43.7101997,-79.3932422
32 Camden St 508 Toronto,1,1,Condo Apt Loft,2100,0-499,C9399786,0,499,249.5,Condo Apartment,Loft,43.6472244,-79.397228
195 Mccaul St 403 Toronto,1,1,Condo Apt Apartment,2100,500-599,C9377016,500,599,549.5,Condo Apartment,Apartment,43.6567194,-79.39214460000001
2791 Eglinton Ave E 507 Toronto,1,1,Condo Townhouse Stacked Townhse,2100,500-599,E9394060,500,599,549.5,Condo Townhouse,Stacked Townhse,43.7369703,-79.24510339999999
127 Broadway Ave 502 Toronto,1,1,Condo Apt Apartment,2100,500-599,C10417144,500,599,549.5,Condo Apartment,Apartment,43.7103794,-79.3921761
39 Roehampton Ave 304 Toronto,1,1,Condo Apt Apartment,2100,0-499,C10893865,0,499,249.5,Condo Apartment,Apartment,43.7081849,-79.3970648
1 Mallory Gdns 28 Toronto,1,1,Condo Apt Apartment,2100,600-699,C9752135,600,699,649.5,Condo Apartment,Apartment,43.6910069,-79.3959776
58 Orchard View Blvd 609 Toronto,1,1,Condo Apt Apartment,2100,0-499,C10405950,0,499,249.5,Condo Apartment,Apartment,43.7081369,-79.4005574
195 Redpath Ave 2602 Toronto,1,1,Condo Apt Apartment,2100,0-499,C10477024,0,499,249.5,Condo Apartment,Apartment,43.7101997,-79.3932422
319 Jarvis St 4205 Toronto,1,1,Condo Apt Apartment,2100,0-499,C9395137,0,499,249.5,Condo Apartment,Apartment,43.6597863,-79.3753128
181 Dundas St E 2807 Toronto,1,1,Condo Apt Apartment,2100,0-499,C10423688,0,499,249.5,Condo Apartment,Apartment,43.6570251,-79.374008
160 Kingsway Cres 703 Toronto,1+1,1,Condo Apt Apartment,2100,500-599,W10425259,500,599,549.5,Condo Apartment,Apartment,43.6617413,-79.50711319999999
500 Wilson Ave 442 Toronto,1+1,1,Condo Apt Apartment,2100,0-499,C10422094,0,499,249.5,Condo Apartment,Apartment,43.7353752,-79.4454727
425 Front St E 506 Toronto,1,1,Comm Element Condo Apartment,2100,500-599,C9770092,500,599,549.5,Common Element Condo,Apartment,43.6526799,-79.35710999999999
10 Laidlaw St 717 Toronto,1,1,Condo Townhouse Stacked Townhse,2100,500-599,W9419304,500,599,549.5,Condo Townhouse,Stacked Townhse,43.639782,-79.4266526
117 Broadway Ave 1306S Toronto,1,1,Condo Apt Apartment,2100,500-599,C10441742,500,599,549.5,Condo Apartment,Apartment,43.71035699999999,-79.3925946
101 Erskine Ave 2306 Toronto,1,1,Condo Apt Apartment,2100,0-499,C9509539,0,499,249.5,Condo Apartment,Apartment,43.7115382,-79.39532299999999
159 Dundas St E 1902 Toronto,1,1,Condo Apt Apartment,2100,500-599,C9983258,500,599,549.5,Condo Apartment,Apartment,43.6567653,-79.3749976
215 Queen St W 606 Toronto,1,1,Condo Apt Apartment,2100,0-499,C9302827,0,499,249.5,Condo Apartment,Apartment,43.6504655,-79.3878063
560 King St W 212 Toronto,1,1,Condo Apt Apartment,2100,0-499,C9396274,0,499,249.5,Condo Apartment,Apartment,43.64492180000001,-79.3990768
2404 Queen St 41 Toronto,1,1,Condo Apt Apartment,2100,500-599,E9419971,500,599,549.5,Condo Apartment,Apartment,43.67467509999999,-79.2797071
70 Town Centre Crt 1405 Toronto,1+1,1,Condo Apt Apartment,2100,600-699,E9565575,600,699,649.5,Condo Apartment,Apartment,43.7737121,-79.2554562
227 Sterling Rd 200 Toronto,1,1,Condo Apt Loft,2100,700-799,C10430249,700,799,749.5,Condo Apartment,Loft,43.6541597,-79.4447396
385 Osler St 306 Toronto,1,1,Condo Apt Apartment,2100,500-599,W10290928,500,599,549.5,Condo Apartment,Apartment,43.6738228,-79.4609282
21 Lawren Harris Sq 1104 Toronto,1,1,Condo Apt Apartment,2100,500-599,C10422477,500,599,549.5,Condo Apartment,Apartment,43.65515569999999,-79.35488169999999
319 Jarvis St 5005 Toronto,1,1,Condo Apt Apartment,2100,0-499,C10408984,0,499,249.5,Condo Apartment,Apartment,43.6597863,-79.3753128
195 McCaul St 1413 Toronto,1,1,Condo Apt Apartment,2100,0-499,C10423567,0,499,249.5,Condo Apartment,Apartment,43.6567194,-79.39214460000001
90 Glen Everest Rd 616 Toronto,1+1,1,Condo Apt Apartment,2100,500-599,E9850531,500,599,549.5,Condo Apartment,Apartment,43.7031342,-79.25277299999999
8 Hillsdale Ave E 740 Toronto,1,1,Condo Apt Apartment,2100,0-499,C10411604,0,499,249.5,Condo Apartment,Apartment,43.7038324,-79.3968958
117 Broadway Ave 407 Toronto,1,1,Condo Apt Apartment,2100,500-599,C10421056,500,599,549.5,Condo Apartment,Apartment,43.71035699999999,-79.3925946
399 Dupont St 205 Toronto,1,1,Condo Apt Apartment,2100,0-499,C10424894,0,499,249.5,Condo Apartment,Apartment,43.673342,-79.41219389999999
1051 Victoria Park Ave 2 Toronto,1,1,Condo Apt Apartment,2100,0-499,E8477594,0,499,249.5,Condo Apartment,Apartment,43.7062968,-79.2945502
36 Lisgar St 802E Toronto,1,1,Condo Apt Apartment,2100,0-499,C10707866,0,499,249.5,Condo Apartment,Apartment,43.6420208,-79.4233917
60 Shuter St 2612 Toronto,1+1,1,Condo Apt Apartment,2100,500-599,C9393006,500,599,549.5,Condo Apartment,Apartment,43.6550609,-79.3760574
125 Redpath Ave 1613 Toronto,1,1,Condo Apt Apartment,2100,0-499,C10426808,0,499,249.5,Condo Apartment,Apartment,43.7076393,-79.39241249999999
185 Alberta Ave 401 Toronto,1,1,Condo Apt Apartment,2100,500-599,C9416842,500,599,549.5,Condo Apartment,Apartment,43.6804759,-79.43349590000001
425 Front St E 618 Toronto,1,1,Condo Apt Apartment,2100,500-599,C10431545,500,599,549.5,Condo Apartment,Apartment,43.6526799,-79.35710999999999
9 Tecumseth St 305 Toronto,1,1,Condo Apt Apartment,2100,500-599,C10228344,500,599,549.5,Condo Apartment,Apartment,43.6410139,-79.4037653
388 Brown's Line 1 Toronto,1,1,Condo Apt Apartment,2100,500-599,W9284947,500,599,549.5,Condo Apartment,Apartment,43.600966,-79.5452907
82 Dalhousie St 1002 Toronto,1,1,Condo Apt Apartment,2100,0-499,C9344819,0,499,249.5,Condo Apartment,Apartment,43.655802,-79.3764407
31 Tippett Rd 903 Toronto,1,1,Condo Apt Apartment,2100,0-499,C10428346,0,499,249.5,Condo Apartment,Apartment,43.73349959999999,-79.4460831
101 Erskine Ave 1306 Toronto,1,1,Condo Apt Apartment,2100,0-499,C9510905,0,499,249.5,Condo Apartment,Apartment,43.7115382,-79.39532299999999
185 Alberta Ave 204 Toronto,1,1,Condo Apt Apartment,2100,0-499,C10420814,0,499,249.5,Condo Apartment,Apartment,43.6804759,-79.43349590000001
2031 Kennedy Rd #1823 Toronto,1,1,Condo Apt Apartment,2100,0-499,E9362665,0,499,249.5,Condo Apartment,Apartment,43.7771628,-79.2842668
608 Richmond St. W 307 Toronto,1,1,Condo Apt Apartment,2100,0-499,C9419855,0,499,249.5,Condo Apartment,Apartment,43.6468253,-79.4029132
38 The Esplanade 901 Toronto,1,1,Condo Apt Apartment,2100,0-499,C9976116,0,499,249.5,Condo Apartment,Apartment,43.6469122,-79.3746664
125 Redpath Ave 908 Toronto,1,1,Condo Apt Apartment,2100,500-599,C9768257,500,599,549.5,Condo Apartment,Apartment,43.7076393,-79.39241249999999
5 Soudan Ave 915 Toronto,1,1,Condo Apt Apartment,2100,0-499,C10405776,0,499,249.5,Condo Apartment,Apartment,43.70432539999999,-79.39716709999999
2A Church St 1303 Toronto,1,1,Condo Apt Apartment,2100,0-499,C10426120,0,499,249.5,Condo Apartment,Apartment,43.6469619,-79.37334020000002
127 Broadway Ave 1406S Toronto,1,1,Condo Apt Apartment,2100,500-599,C10430911,500,599,549.5,Condo Apartment,Apartment,43.7103794,-79.3921761
2791 Eglington Ave 513 Toronto,1,1,Condo Townhouse Stacked Townhse,2100,500-599,E9512044,500,599,549.5,Condo Townhouse,Stacked Townhse,43.7369703,-79.24510339999999
238 Simcoe St N 2902 Toronto,1,1,Condo Apt Apartment,2100,0-499,C10425538,0,499,249.5,Condo Apartment,Apartment,43.6534014,-79.38904769999999
90 Glen Everest Rd N 306 Toronto,1,1,Condo Apt Apartment,2100,600-699,E10375862,600,699,649.5,Condo Apartment,Apartment,43.7031342,-79.25277299999999
2020 Bathurst St 517 Toronto,1,1,Condo Apt Apartment,2100,500-599,C9241322,500,599,549.5,Condo Apartment,Apartment,43.70078609999999,-79.4256293
117 Broadway Ave 504N Toronto,1,1,Condo Apt Apartment,2100,500-599,C10432097,500,599,549.5,Condo Apartment,Apartment,43.71035699999999,-79.3925946
210 Simcoe St 2209 Toronto,1,1,Condo Apt Apartment,2100,0-499,C9389076,0,499,249.5,Condo Apartment,Apartment,43.6525304,-79.3884369
127 Broadway Ave 617 Toronto,1,1,Condo Apt Apartment,2100,0-499,C10417250,0,499,249.5,Condo Apartment,Apartment,43.7103794,-79.3921761
117 BROADWAY Ave 405 Toronto,1,1,Condo Apt Apartment,2100,500-599,C10421246,500,599,549.5,Condo Apartment,Apartment,43.71035699999999,-79.3925946
195 McCaul St 315 Toronto,1+1,1,Condo Apt Apartment,2100,500-599,C9390639,500,599,549.5,Condo Apartment,Apartment,43.6567194,-79.39214460000001
127 Broadway Ave 408 Toronto,1,1,Condo Apt Apartment,2100,600-699,C10427340,600,699,649.5,Condo Apartment,Apartment,43.7103794,-79.3921761
319 Jarvis St 505 Toronto,1,1,Condo Apt Apartment,2100,0-499,C9383998,0,499,249.5,Condo Apartment,Apartment,43.6597863,-79.3753128
77 SHUTER St 1715 Toronto,1,1,Condo Apt Apartment,2100,0-499,C10410479,0,499,249.5,Condo Apartment,Apartment,43.6549921,-79.375121
357 King St W 1904 Toronto,1,1,Condo Apt Apartment,2100,500-599,C10409799,500,599,549.5,Condo Apartment,Apartment,43.6457762,-79.3925063
195 McCaul St 523 Toronto,1,1,Condo Apt Apartment,2100,500-599,C10425616,500,599,549.5,Condo Apartment,Apartment,43.6567194,-79.39214460000001
783 Bathurst St 502 Toronto,1,1,Condo Apt Apartment,2100,0-499,C10410350,0,499,249.5,Condo Apartment,Apartment,43.6645681,-79.4107994
100 Dalhousie St 1506 Toronto,1,1,Condo Apt Apartment,2100,0-499,C9506335,0,499,249.5,Condo Apartment,Apartment,43.65631740000001,-79.37669629999999
921 Midland Ave 206 Toronto,1,1,Condo Apt Apartment,2100,600-699,E10477040,600,699,649.5,Condo Apartment,Apartment,43.73596149999999,-79.2579728
36 Lisgar St 1107E Toronto,1+1,1,Condo Apt Apartment,2100,600-699,C10442505,600,699,649.5,Condo Apartment,Apartment,43.6420208,-79.4233917
1285 Dupont St 609 Toronto,1+1,1,Condo Apt Apartment,2100,600-699,W9371766,600,699,649.5,Condo Apartment,Apartment,43.66777390000001,-79.4428166
1 Mallory Gdns 2 Toronto,1,1,Condo Apt Apartment,2100,600-699,C9514066,600,699,649.5,Condo Apartment,Apartment,43.6910069,-79.3959776
105 The Queensway Ave 1309 Toronto,1,1,Condo Apt Apartment,2100,0-499,W10231386,0,499,249.5,Condo Apartment,Apartment,43.6358626,-79.471413
15 Maplewood Ave 910 Toronto,1,1,Condo Apt Apartment,2100,0-499,C9372988,0,499,249.5,Condo Apartment,Apartment,43.6859311,-79.4215481
181 Dundas St E 2607 Toronto,1,1,Condo Apt Apartment,2125,0-499,C10414377,0,499,249.5,Condo Apartment,Apartment,43.6570251,-79.374008
238 simcoe St 702 Toronto,1,1,Comm Element Condo Apartment,2125,500-599,C9349476,500,599,549.5,Common Element Condo,Apartment,43.6534014,-79.38904769999999
195 McCaul St 711 Toronto,1+1,1,Condo Apt Apartment,2145,500-599,C10427727,500,599,549.5,Condo Apartment,Apartment,43.6567194,-79.39214460000001
17 Zorra St 2005 Toronto,1,1,Condo Apt Apartment,2149,500-599,W10414953,500,599,549.5,Condo Apartment,Apartment,43.621263,-79.52130679999999
310 Lonsdale Rd 03 Toronto,1,1,Condo Apt Apartment,2149,500-599,C10426576,500,599,549.5,Condo Apartment,Apartment,43.6892098,-79.4112106
127 Broadway Ave 410S Toronto,1,1,Condo Apt Apartment,2149,500-599,C10422268,500,599,549.5,Condo Apartment,Apartment,43.7103794,-79.3921761
9 Tecumseth St 901 Toronto,1,1,Condo Apt Apartment,2149,0-499,C9769729,0,499,249.5,Condo Apartment,Apartment,43.6410139,-79.4037653
77 Shuter St 2207 Toronto,1,1,Condo Apt Apartment,2150,500-599,C9230154,500,599,549.5,Condo Apartment,Apartment,43.6549921,-79.375121
60 Shuter St 2010 Toronto,1,1,Condo Apt Apartment,2150,0-499,C10927891,0,499,249.5,Condo Apartment,Apartment,43.6550609,-79.3760574
425 Front St E 701 Toronto,1,1,Condo Apt Apartment,2150,0-499,C10405243,0,499,249.5,Condo Apartment,Apartment,43.6526799,-79.35710999999999
3655 kingston Rd 706 Toronto,1,1,Condo Apt Apartment,2150,500-599,E9364498,500,599,549.5,Condo Apartment,Apartment,43.7429205,-79.21211699999999
50 Power St 1806 Toronto,1,1,Condo Apt Apartment,2150,500-599,C10425281,500,599,549.5,Condo Apartment,Apartment,43.6543821,-79.3630452
38 Joe Shuster Way 1908 Toronto,1,1,Condo Apt Apartment,2150,0-499,C10430296,0,499,249.5,Condo Apartment,Apartment,43.6404912,-79.4243391
9 Mabelle Ave 1217 Toronto,1,1,Condo Apt Apartment,2150,500-599,W10427753,500,599,549.5,Condo Apartment,Apartment,43.6459961,-79.52595
127 Broadway Ave 1210 Toronto,1,1,Condo Apt Apartment,2150,500-599,C10428881,500,599,549.5,Condo Apartment,Apartment,43.7103794,-79.3921761
90 Glen Everest Rd 401 Toronto,1+1,2,Condo Apt Apartment,2150,600-699,E10413156,600,699,649.5,Condo Apartment,Apartment,43.7031342,-79.25277299999999
5 Mabelle Ave 831 Toronto,1,1,Condo Apt Apartment,2150,500-599,W10413374,500,599,549.5,Condo Apartment,Apartment,43.6466642,-79.5255121
195 McCaul St 513 Toronto,1+1,1,Condo Apt Apartment,2150,500-599,C9389149,500,599,549.5,Condo Apartment,Apartment,43.6567194,-79.39214460000001
50 Bruyeres Mews 509 Toronto,1,1,Condo Apt Apartment,2150,500-599,C10425772,500,599,549.5,Condo Apartment,Apartment,43.6376722,-79.40213829999999
82 DALHOUSIE St 1116 Toronto,1,1,Condo Apt Apartment,2150,0-499,C10419038,0,499,249.5,Condo Apartment,Apartment,43.655802,-79.3764407
38 Monte Kwinter Crt 727 Toronto,1+1,1,Condo Apt Apartment,2150,0-499,C9508470,0,499,249.5,Condo Apartment,Apartment,43.7335675,-79.44883089999999
195 McCaul St 309 Toronto,1+1,1,Condo Apt Apartment,2150,500-599,C10412911,500,599,549.5,Condo Apartment,Apartment,43.6567194,-79.39214460000001
77 Mutual St 907 Toronto,1,1,Condo Apt Apartment,2150,0-499,C10442494,0,499,249.5,Condo Apartment,Apartment,43.6561607,-79.3750714
260 Sackville St 312 Toronto,1,1,Condo Apt Apartment,2150,500-599,C10404864,500,599,549.5,Condo Apartment,Apartment,43.6611235,-79.3637664
55 Ontario St 901 Toronto,1,1,Condo Apt Apartment,2150,0-499,C10407007,0,499,249.5,Condo Apartment,Apartment,43.653598,-79.3662319
565 Yonge St 4FL Toronto,1,1,Other Multi-Level,2150,700-799,C9767918,700,799,749.5,Other,Multi-Level,43.66536,-79.3845741
161 Roehampton Ave 233 Toronto,1,1,Comm Element Condo Apartment,2150,0-499,C10414482,0,499,249.5,Common Element Condo,Apartment,43.70877249999999,-79.3937821
195 McCaul St 213 Toronto,1+1,1,Condo Apt Apartment,2150,500-599,C10416236,500,599,549.5,Condo Apartment,Apartment,43.6567194,-79.39214460000001
403 Church St 711 Toronto,1,1,Condo Apt Apartment,2150,500-599,C9752014,500,599,549.5,Condo Apartment,Apartment,43.6622424,-79.37927909999999
90 Glen Everest Rd 403 Toronto,1+1,1,Condo Apt Apartment,2150,500-599,E10440591,500,599,549.5,Condo Apartment,Apartment,43.7031342,-79.25277299999999
127 Broadway Ave 1408 Toronto,1+1,1,Condo Apt Apartment,2150,500-599,C10441095,500,599,549.5,Condo Apartment,Apartment,43.7103794,-79.3921761
1787 St. Clair Ave W 907 Toronto,1,1,Condo Apt Apartment,2150,0-499,W10431363,0,499,249.5,Condo Apartment,Apartment,43.6735145,-79.46209689999999
90 Glen Everest Rd 409 Toronto,1,1,Condo Apt Apartment,2150,500-599,E10432816,500,599,549.5,Condo Apartment,Apartment,43.7031342,-79.25277299999999
320 Richmond St E 502 Toronto,1,1,Condo Apt Apartment,2150,500-599,C10426126,500,599,549.5,Condo Apartment,Apartment,43.6535819,-79.3687903
5 Mabelle Ave 334 Toronto,1+1,1,Condo Apt Apartment,2150,500-599,W9398721,500,599,549.5,Condo Apartment,Apartment,43.6466642,-79.5255121
621 Sheppard Ave E 530 Toronto,1,1,Condo Apt Apartment,2150,500-599,C9770177,500,599,549.5,Condo Apartment,Apartment,43.7679898,-79.3813433
127 Broadway Ave 702 Toronto,1,1,Condo Apt Apartment,2150,0-499,C10424717,0,499,249.5,Condo Apartment,Apartment,43.7103794,-79.3921761
219 Dundas St E 1505 Toronto,1,1,Condo Apt Apartment,2150,500-599,C10411596,500,599,549.5,Condo Apartment,Apartment,43.657581,-79.37289
225 Sumach St 2401 Toronto,1,1,Condo Apt Apartment,2150,500-599,C10428793,500,599,549.5,Condo Apartment,Apartment,43.6611009,-79.3604498
16 Brookers Lane 604 Toronto,1,1,Condo Apt Apartment,2150,0-499,W9513968,0,499,249.5,Condo Apartment,Apartment,43.6269107,-79.4786185
117 Broadway Ave 507 Toronto,1,1,Condo Apt Apartment,2150,500-599,C10428741,500,599,549.5,Condo Apartment,Apartment,43.71035699999999,-79.3925946
181 Dundas St 5007 Toronto,1,1,Condo Apt Apartment,2150,0-499,C10893779,0,499,249.5,Condo Apartment,Apartment,43.6549815,-79.3865237
3474 Yonge St 124 Toronto,1,1,Condo Apt Apartment,2150,0-499,C9510101,0,499,249.5,Condo Apartment,Apartment,43.7349887,-79.4051707
140 BERRY Rd 4 Toronto,1,1,Condo Apt Apartment,2150,600-699,W10413019,600,699,649.5,Condo Apartment,Apartment,43.6378639,-79.4868852
560 King St W 323 Toronto,1,1,Condo Apt Apartment,2150,500-599,C10428468,500,599,549.5,Condo Apartment,Apartment,43.64492180000001,-79.3990768
108 Peter St 1015 Toronto,1,1,Condo Apt Apartment,2150,0-499,C10432669,0,499,249.5,Condo Apartment,Apartment,43.6476915,-79.3933074
195 McCaul St 212 Toronto,1+1,1,Condo Apt Apartment,2150,500-599,C10442769,500,599,549.5,Condo Apartment,Apartment,43.6567194,-79.39214460000001
361 Front St W 512 Toronto,1+1,1,Condo Apt Apartment,2150,500-599,C10428635,500,599,549.5,Condo Apartment,Apartment,43.6431921,-79.3915011
195 McCaul St 316 Toronto,1+1,1,Condo Apt Apartment,2150,500-599,C9390662,500,599,549.5,Condo Apartment,Apartment,43.6567194,-79.39214460000001
195 McCaul St 514 Toronto,1+1,1,Condo Apt Apartment,2150,500-599,C9382644,500,599,549.5,Condo Apartment,Apartment,43.6567194,-79.39214460000001
127 Broadway Ave 2004S Toronto,1+1,1,Condo Apt Apartment,2150,500-599,C10845383,500,599,549.5,Condo Apartment,Apartment,43.7103794,-79.3921761
425 Front St E 615 Toronto,1+1,1,Condo Apt Apartment,2150,500-599,C9392002,500,599,549.5,Condo Apartment,Apartment,43.6526799,-79.35710999999999
68 Shuter St 508 Toronto,1,1,Condo Apt Apartment,2150,0-499,C9256085,0,499,249.5,Condo Apartment,Apartment,43.6551135,-79.3757349
425 Front St E 604 Toronto,1+1,1,Condo Apt Apartment,2150,500-599,C10405511,500,599,549.5,Condo Apartment,Apartment,43.6526799,-79.35710999999999
230 Simcoe St 1536 Toronto,1,1,Condo Apt Apartment,2150,0-499,C9384253,0,499,249.5,Condo Apartment,Apartment,43.65328239999999,-79.3889093
1808 St Clair Ave W 605 Toronto,1,1,Condo Apt Apartment,2150,500-599,W10440821,500,599,549.5,Condo Apartment,Apartment,43.6738836,-79.4624341
150 Logan Ave 540 Toronto,1,1,Condo Apt Apartment,2150,500-599,E10282954,500,599,549.5,Condo Apartment,Apartment,43.6580467,-79.3415625
2791 Eglinton East Ave 510 Toronto,1,1,Condo Townhouse Stacked Townhse,2150,500-599,E10424709,500,599,549.5,Condo Townhouse,Stacked Townhse,43.7369703,-79.24510339999999
127 Broadway Ave 1707 Toronto,1,1,Condo Apt Apartment,2150,500-599,C10431700,500,599,549.5,Condo Apartment,Apartment,43.7103794,-79.3921761
403 Church St 1210 Toronto,1,1,Condo Apt Apartment,2150,0-499,C9924791,0,499,249.5,Condo Apartment,Apartment,43.6622424,-79.37927909999999
39 Brant St 207 Toronto,1,1,Condo Apt Apartment,2150,0-499,C10422821,0,499,249.5,Condo Apartment,Apartment,43.6464821,-79.39809850000002
127 Broadway Ave 1304S Toronto,1+1,1,Condo Apt Apartment,2150,500-599,C10425982,500,599,549.5,Condo Apartment,Apartment,43.7103794,-79.3921761
195 McCaul St 1112 Toronto,1,1,Condo Apt Apartment,2150,500-599,C10411608,500,599,549.5,Condo Apartment,Apartment,43.6567194,-79.39214460000001
238 Simcoe St 2702 Toronto,1,1,Condo Apt Apartment,2150,0-499,C10404919,0,499,249.5,Condo Apartment,Apartment,43.6534014,-79.38904769999999
319 Carlaw Ave 805 Toronto,1,1,Condo Apt Loft,2150,500-599,E9419485,500,599,549.5,Condo Apartment,Loft,43.66437,-79.3411364
990 Avenue Rd 208 Toronto,1,1,Condo Apt Apartment,2150,500-599,C9419053,500,599,549.5,Condo Apartment,Apartment,43.7033721,-79.40835899999999
400 Adelaide St E 2011 Toronto,1,1,Condo Apt Apartment,2150,600-699,C9363238,600,699,649.5,Condo Apartment,Apartment,43.65278139999999,-79.3677616
82 Dalhousie St N 4216 Toronto,1,1,Condo Apt Apartment,2150,0-499,C9366309,0,499,249.5,Condo Apartment,Apartment,43.655802,-79.3764407
425 front St E 303 Toronto,1,1,Condo Apt Apartment,2150,500-599,C9415764,500,599,549.5,Condo Apartment,Apartment,43.6526799,-79.35710999999999
195 McCaul St 1512 Toronto,1,1,Condo Apt Apartment,2150,500-599,C10442645,500,599,549.5,Condo Apartment,Apartment,43.6567194,-79.39214460000001
38 Monte Kwinter Crt 104 Toronto,1,1,Condo Apt Apartment,2150,500-599,C10425927,500,599,549.5,Condo Apartment,Apartment,43.7335675,-79.44883089999999
60 Shuter St 1512 Toronto,1+1,1,Condo Apt Apartment,2150,500-599,C10040707,500,599,549.5,Condo Apartment,Apartment,43.6550609,-79.3760574
352 Front St W 1419 Toronto,1+1,1,Condo Apt Multi-Level,2150,500-599,C10433119,500,599,549.5,Condo Apartment,Multi-Level,43.6433534,-79.39245149999999
44 St. Joseph St 1011 Toronto,1,1,Condo Apt Apartment,2150,500-599,C10442688,500,599,549.5,Condo Apartment,Apartment,43.6659641,-79.3874079
327 King St W 2901 Toronto,1,1,Condo Apt Apartment,2150,0-499,C10403152,0,499,249.5,Condo Apartment,Apartment,43.6461914,-79.39106269999999
95 Bathurst St 515 Toronto,1,1,Condo Apt Loft,2150,0-499,C10431459,0,499,249.5,Condo Apartment,Loft,43.6445805,-79.40255789999999
238 Simcoe St 3002 Toronto,1,1,Condo Apt Apartment,2150,0-499,C10440679,0,499,249.5,Condo Apartment,Apartment,43.6534014,-79.38904769999999
195 McCaul St 304 Toronto,1+1,1,Condo Apt Apartment,2150,500-599,C9511794,500,599,549.5,Condo Apartment,Apartment,43.6567194,-79.39214460000001
251 Jarvis St 629 Toronto,1,1,Condo Apt Apartment,2150,0-499,C10412102,0,499,249.5,Condo Apartment,Apartment,43.65737670000001,-79.3744501
108 Peter St 3309 Toronto,1,1,Condo Apt Apartment,2150,0-499,C10744117,0,499,249.5,Condo Apartment,Apartment,43.6476915,-79.3933074
352 Front St W 211 Toronto,1,1,Condo Apt Apartment,2150,500-599,C10415463,500,599,549.5,Condo Apartment,Apartment,43.6433534,-79.39245149999999
425 Front St E 402 Toronto,1,1,Condo Apt Apartment,2150,500-599,C10432196,500,599,549.5,Condo Apartment,Apartment,43.6526799,-79.35710999999999
195 McCaul St 210 Toronto,1+1,1,Condo Apt Apartment,2150,500-599,C9512080,500,599,549.5,Condo Apartment,Apartment,43.6567194,-79.39214460000001
117 Broadway Ave 614 Toronto,1,1,Condo Apt Apartment,2150,500-599,C10707923,500,599,549.5,Condo Apartment,Apartment,43.71035699999999,-79.3925946
352 Front St W 612 Toronto,1,1,Condo Apt Apartment,2150,0-499,C9395539,0,499,249.5,Condo Apartment,Apartment,43.6433534,-79.39245149999999
105 Victoria St 503 Toronto,1,1,Condo Apt Apartment,2150,600-699,C10424867,600,699,649.5,Condo Apartment,Apartment,43.6521328,-79.3777157
20 Bruyeres Mews 1109 Toronto,1,1,Condo Apt Apartment,2150,0-499,C9511204,0,499,249.5,Condo Apartment,Apartment,43.6375024,-79.4009141
560 Front St 703 Toronto,1,1,Condo Apt Apartment,2150,500-599,C9732331,500,599,549.5,Condo Apartment,Apartment,43.64125,-79.3999726
99 Broadway Ave 3212 Toronto,1,1,Condo Apt Apartment,2150,0-499,C9393728,0,499,249.5,Condo Apartment,Apartment,43.7105663,-79.3932957
25 Richmond St E 2514 Toronto,1,1,Condo Apt Apartment,2150,0-499,C10875095,0,499,249.5,Condo Apartment,Apartment,43.6519017,-79.37721650000002
195 McCaul St 310 Toronto,1+1,1,Condo Apt Apartment,2150,500-599,C9511662,500,599,549.5,Condo Apartment,Apartment,43.6567194,-79.39214460000001
230 Simcoe St 2520 Toronto,1,1,Condo Apt Apartment,2150,0-499,C10416995,0,499,249.5,Condo Apartment,Apartment,43.65328239999999,-79.3889093
31 Tippett Rd 343 Toronto,1,1,Condo Apt Apartment,2150,0-499,C10402827,0,499,249.5,Condo Apartment,Apartment,43.73349959999999,-79.4460831
1524 Lawrence Ave W 101 Toronto,1,1,Condo Apt Apartment,2150,600-699,W10408892,600,699,649.5,Condo Apartment,Apartment,43.7073638,-79.4850323
127 Broadway Ave 1910 Toronto,1,1,Condo Apt Apartment,2150,0-499,C10441082,0,499,249.5,Condo Apartment,Apartment,43.7103794,-79.3921761
560 Front St W 515 Toronto,1,1,Condo Apt Apartment,2150,500-599,C9263615,500,599,549.5,Condo Apartment,Apartment,43.64125,-79.3999726
629 King St W 824 Toronto,1,1,Condo Apt Apartment,2150,0-499,C10419892,0,499,249.5,Condo Apartment,Apartment,43.644001,-79.4015398
180 Fairview Mall Dr 1001 Toronto,1,1,Condo Apt Apartment,2150,0-499,C10060936,0,499,249.5,Condo Apartment,Apartment,43.7802158,-79.34189529999999
750 Bay St 3201 Toronto,1,1,Condo Apt Apartment,2150,500-599,C9366128,500,599,549.5,Condo Apartment,Apartment,43.6596664,-79.38605749999999
4968 Yonge St 1212 Toronto,1,1,Condo Apt Apartment,2150,500-599,C9768863,500,599,549.5,Condo Apartment,Apartment,43.7654169,-79.4125167
425 Front St E 814 Toronto,1,1,Condo Apt Apartment,2150,500-599,C9510622,500,599,549.5,Condo Apartment,Apartment,43.6526799,-79.35710999999999
35 Mariner Terr 1705 Toronto,1,1,Condo Apt Apartment,2175,500-599,C10237515,500,599,549.5,Condo Apartment,Apartment,43.6396694,-79.3920888
10 Graphophone Grve 2206 Toronto,1+1,1,Condo Apt Apartment,2175,600-699,W9507733,600,699,649.5,Condo Apartment,Apartment,43.667448,-79.4422103
117 Broadway Ave 1110S Toronto,1,1,Condo Apt Apartment,2175,0-499,C10423298,0,499,249.5,Condo Apartment,Apartment,43.71035699999999,-79.3925946
85 Queens Wharf Rd 611 Toronto,1,1,Condo Apt Apartment,2175,500-599,C10421433,500,599,549.5,Condo Apartment,Apartment,43.6388838,-79.3986923
15 Zorra St 901 Toronto,1,1,Condo Apt Apartment,2175,500-599,W10346050,500,599,549.5,Condo Apartment,Apartment,43.6212404,-79.5213634
5 Hanna Ave 202 Toronto,1,1,Condo Apt Apartment,2175,500-599,C10426105,500,599,549.5,Condo Apartment,Apartment,43.6372472,-79.41839940000001
10 De Boers Dr 1214 Toronto,1,1,Condo Apt Apartment,2180,0-499,W10405167,0,499,249.5,Condo Apartment,Apartment,43.752059,-79.4643103
115 Blue Jays Way 501 Toronto,1,1,Condo Apt Apartment,2180,0-499,C10432752,0,499,249.5,Condo Apartment,Apartment,43.6457205,-79.3918198
195 McCaul St 616 Toronto,1+1,1,Condo Apt Apartment,2180,500-599,C10405741,500,599,549.5,Condo Apartment,Apartment,43.6567194,-79.39214460000001
195 McCaul St E 614 Toronto,1+1,1,Condo Apt Apartment,2180,500-599,C10420539,500,599,549.5,Condo Apartment,Apartment,43.6567194,-79.39214460000001
89 Mcgill St 1110 Toronto,1,1,Condo Apt Apartment,2180,0-499,C9388328,0,499,249.5,Condo Apartment,Apartment,43.6606215,-79.3786217
560 Front St W 813 Toronto,1,1,Condo Apt Apartment,2180,500-599,C10402966,500,599,549.5,Condo Apartment,Apartment,43.64125,-79.3999726
36 Zorra St 1402 Toronto,1+1,1,Condo Apt Other,2185,500-599,W10875181,500,599,549.5,Condo Apartment,Other,43.619725,-79.5218167
9 Windermere Ave TH94 Toronto,1,1,Condo Townhouse Stacked Townhse,2190,0-499,W10428675,0,499,249.5,Condo Townhouse,Stacked Townhse,43.63685599999999,-79.4682057
127 Broadway Ave 1510 Toronto,1,1,Condo Apt Apartment,2190,0-499,C10424574,0,499,249.5,Condo Apartment,Apartment,43.7103794,-79.3921761
135 Maitland St 401 Toronto,1,1,Condo Apt Apartment,2190,500-599,C10408416,500,599,549.5,Condo Apartment,Apartment,43.6649586,-79.378188
397 Front St W 1805 Toronto,1,1,Condo Apt Apartment,2190,500-599,C9398045,500,599,549.5,Condo Apartment,Apartment,43.6426397,-79.3935863
95 Lawton Blvd 502 Toronto,1,1,Condo Apt Apartment,2195,500-599,C9506609,500,599,549.5,Condo Apartment,Apartment,43.6933096,-79.39657729999999
1500 Bathurst St 1409 Toronto,1,1,Condo Apt Apartment,2195,500-599,C10874858,500,599,549.5,Condo Apartment,Apartment,43.68424659999999,-79.41909319999999
1545 Bathurst St 203 Toronto,1,1,Condo Apt Apartment,2195,500-599,C10874864,500,599,549.5,Condo Apartment,Apartment,43.68612419999999,-79.419097
1545 Bathurst St 109 Toronto,1,1,Condo Apt Apartment,2195,500-599,C10412025,500,599,549.5,Condo Apartment,Apartment,43.68612419999999,-79.419097
1291 Bayview Ave N 603 Toronto,1,1,Condo Apt Apartment,2195,600-699,C9513028,600,699,649.5,Condo Apartment,Apartment,43.6976344,-79.3715754
95 Lawton Blvd 506 Toronto,1,1,Condo Apt Apartment,2195,500-599,C9349594,500,599,549.5,Condo Apartment,Apartment,43.6933096,-79.39657729999999
11 Brunel Crt 1009 Toronto,1,1,Condo Apt Apartment,2195,0-499,C10420336,0,499,249.5,Condo Apartment,Apartment,43.6394086,-79.3932334
15 Bruyeres Mews 1004 Toronto,1,1,Condo Apt Apartment,2195,500-599,C10426822,500,599,549.5,Condo Apartment,Apartment,43.63722930000001,-79.4007335
2A Church St 412 Toronto,1,1,Condo Apt Apartment,2195,500-599,C10421432,500,599,549.5,Condo Apartment,Apartment,43.6469619,-79.37334020000002
1545 Bathurst St 305 Toronto,1,1,Condo Apt Apartment,2195,500-599,C10874862,500,599,549.5,Condo Apartment,Apartment,43.68612419999999,-79.419097
15 BRUNEL Crt 523 Toronto,1,1,Condo Apt Apartment,2195,600-699,C9509008,600,699,649.5,Condo Apartment,Apartment,43.639832,-79.3932202
2525 Bathurst St 104 Toronto,1,1,Condo Apt Apartment,2195,500-599,C10440789,500,599,549.5,Condo Apartment,Apartment,43.7059936,-79.4261248
35 Saranac Blvd 820 Toronto,1,1,Condo Apt Apartment,2195,500-599,C10292572,500,599,549.5,Condo Apartment,Apartment,43.7223911,-79.4318771
1291 Bayview Ave N 405 Toronto,1,1,Condo Apt Apartment,2195,0-499,C9388398,0,499,249.5,Condo Apartment,Apartment,43.6976344,-79.3715754
28 Widmer St 4721 Toronto,1,1,Condo Apt Apartment,2198,500-599,C10413586,500,599,549.5,Condo Apartment,Apartment,43.6471784,-79.39160629999999
251 Jarvis St 2401 Toronto,1,1,Condo Apt Apartment,2199,500-599,C10420092,500,599,549.5,Condo Apartment,Apartment,43.65737670000001,-79.3744501
55 Ontario St 712 Toronto,1,1,Condo Apt Apartment,2199,0-499,C10416909,0,499,249.5,Condo Apartment,Apartment,43.653598,-79.3662319
195 Bonis Ave 2113 Toronto,1+1,1,Condo Apt Apartment,2199,600-699,E9370162,600,699,649.5,Condo Apartment,Apartment,43.7855843,-79.29150729999999
70 ANNIE CRAIG Dr 1801 Toronto,1,1,Condo Apt Apartment,2199,500-599,W9367650,500,599,549.5,Condo Apartment,Apartment,43.6247425,-79.4789275
5 Defries St 3409 Toronto,1,1,Condo Apt Apartment,2199,500-599,C9349936,500,599,549.5,Condo Apartment,Apartment,43.6605705,-79.3563724
35 Hayden St 515 Toronto,1,1,Condo Apt Apartment,2199,0-499,C9377884,0,499,249.5,Condo Apartment,Apartment,43.6696226,-79.3847443
1410 Dupont St 2002 Toronto,1,1,Condo Apt Apartment,2200,600-699,W9781787,600,699,649.5,Condo Apartment,Apartment,43.66710279999999,-79.4474491
55 Bremner Blvd 2009 Toronto,1,1,Condo Apt Apartment,2200,500-599,C10418895,500,599,549.5,Condo Apartment,Apartment,43.6421748,-79.3805424
51 Trolley Cres 1208 Toronto,1,1,Condo Apt Loft,2200,0-499,C9400315,0,499,249.5,Condo Apartment,Loft,43.6569809,-79.355378
3 Gloucester St 2308 Toronto,1,1,Condo Apt Apartment,2200,0-499,C10428051,0,499,249.5,Condo Apartment,Apartment,43.6663119,-79.3845087
319 Jarvis St 705 Toronto,1,1,Condo Apt Apartment,2200,0-499,C10421706,0,499,249.5,Condo Apartment,Apartment,43.6597863,-79.3753128
327 King St W 1708 Toronto,1,1,Condo Apt Apartment,2200,0-499,C10433751,0,499,249.5,Condo Apartment,Apartment,43.6461914,-79.39106269999999
130 River St 1907 Toronto,1,1,Condo Apt Apartment,2200,500-599,C9390315,500,599,549.5,Condo Apartment,Apartment,43.6615739,-79.3586529
8 Telegram Mews 720 Toronto,1,1,Condo Apt Apartment,2200,0-499,C9417568,0,499,249.5,Condo Apartment,Apartment,43.6404522,-79.39477049999999
209 Fort York Blvd 271 Toronto,1,1,Condo Apt Apartment,2200,500-599,C10411379,500,599,549.5,Condo Apartment,Apartment,43.6369997,-79.4046541
38 Stewart St 601 Toronto,1,1,Condo Apt Apartment,2200,0-499,C10413994,0,499,249.5,Condo Apartment,Apartment,43.6436396,-79.4012367
195 McCaul St 220 Toronto,1+1,1,Condo Apt Apartment,2200,500-599,C9769510,500,599,549.5,Condo Apartment,Apartment,43.6567194,-79.39214460000001
629 King St W 1312 Toronto,1,1,Condo Apt Apartment,2200,0-499,C10410011,0,499,249.5,Condo Apartment,Apartment,43.644001,-79.4015398
32 Camden St 905 Toronto,1,1,Condo Apt Apartment,2200,500-599,C10423598,500,599,549.5,Condo Apartment,Apartment,43.6472244,-79.397228
2756 Old Leslie St 515 Toronto,1,1,Condo Apt Apartment,2200,500-599,C9397097,500,599,549.5,Condo Apartment,Apartment,43.7696633,-79.36673979999999
1420 Dupont St 1007 Toronto,1+1,1,Condo Apt Apartment,2200,500-599,W9386578,500,599,549.5,Condo Apartment,Apartment,43.6667421,-79.4482712
320 Richmond St E 301 Toronto,1,1,Condo Apt Apartment,2200,600-699,C10424133,600,699,649.5,Condo Apartment,Apartment,43.6537289,-79.3675899
57 St Joseph St 318 Toronto,1,1,Condo Apt Apartment,2200,500-599,C10877781,500,599,549.5,Condo Apartment,Apartment,43.6654292,-79.3880303
650 King St W 604 Toronto,1,1,Condo Apt Apartment,2200,0-499,C10425763,0,499,249.5,Condo Apartment,Apartment,43.6442687,-79.40177779999999
195 McCaul St 714 Toronto,1+1,1,Condo Apt Apartment,2200,500-599,C9417542,500,599,549.5,Condo Apartment,Apartment,43.6567194,-79.39214460000001
127 Broadway Ave 202 Toronto,1,1,Condo Apt Apartment,2200,0-499,C10412534,0,499,249.5,Condo Apartment,Apartment,43.7103794,-79.3921761
151 Village Green Sq 705 Toronto,1+1,1,Condo Apt Apartment,2200,600-699,E9400011,600,699,649.5,Condo Apartment,Apartment,43.7788438,-79.28132509999999
90 Broadview Ave 213 Toronto,1,1,Condo Apt Apartment,2200,0-499,E10413131,0,499,249.5,Condo Apartment,Apartment,43.6579923,-79.3497395
42 Charles St E 1403 Toronto,1,1,Condo Apt Apartment,2200,0-499,C9361491,0,499,249.5,Condo Apartment,Apartment,43.6695837,-79.38416389999999
105 Victoria St Uph 3 Toronto,1,1,Condo Apt Apartment,2200,600-699,C9255317,600,699,649.5,Condo Apartment,Apartment,43.6521328,-79.3777157
195 McCaul St 519 Toronto,1,1,Condo Apt Apartment,2200,0-499,C9377054,0,499,249.5,Condo Apartment,Apartment,43.6567194,-79.39214460000001
403 Church St 713 Toronto,1+1,1,Condo Apt Apartment,2200,500-599,C10286684,500,599,549.5,Condo Apartment,Apartment,43.6622424,-79.37927909999999
327 King St 2401 Toronto,1,1,Condo Apt Apartment,2200,0-499,C9769091,0,499,249.5,Condo Apartment,Apartment,43.6461914,-79.39106269999999
20 Minowan Miikan Lane 317 Toronto,1,1,Condo Apt Apartment,2200,500-599,C10429391,500,599,549.5,Condo Apartment,Apartment,43.6432774,-79.4282542
28 Widmer St 4521 Toronto,1,1,Condo Apt Apartment,2200,500-599,C9387098,500,599,549.5,Condo Apartment,Apartment,43.6471784,-79.39160629999999
25 Richmond St E 1615 Toronto,1,1,Condo Apt Apartment,2200,0-499,C10427583,0,499,249.5,Condo Apartment,Apartment,43.6519017,-79.37721650000002
629 King St W 328 Toronto,1,2,Condo Apt Apartment,2200,0-499,C9389454,0,499,249.5,Condo Apartment,Apartment,43.644001,-79.4015398
251 Jarvis St S 3304 Toronto,1,1,Condo Apt Apartment,2200,500-599,C10426212,500,599,549.5,Condo Apartment,Apartment,43.65737670000001,-79.3744501
1401 Dupont St 519 Toronto,1,1,Co-Op Apt Apartment,2200,800-899,W10440855,800,899,849.5,Co-Op Apartment,Apartment,43.666383,-79.44674289999999
10 Graphophone Grve 1506 Toronto,1+1,1,Condo Apt Apartment,2200,600-699,W9344150,600,699,649.5,Condo Apartment,Apartment,43.667448,-79.4422103
105 The Queensway 2713 Toronto,1,1,Condo Apt Apartment,2200,0-499,W10417429,0,499,249.5,Condo Apartment,Apartment,43.6397956,-79.4667154
425 Front St E 515 Toronto,1+1,1,Condo Apt Apartment,2200,500-599,C9418250,500,599,549.5,Condo Apartment,Apartment,43.6526799,-79.35710999999999
35 Hayden St 413 Toronto,1,1,Condo Apt Apartment,2200,0-499,C9415536,0,499,249.5,Condo Apartment,Apartment,43.6696226,-79.3847443
327 King St W 608 Toronto,1,1,Condo Apt Apartment,2200,0-499,C10426821,0,499,249.5,Condo Apartment,Apartment,43.6461914,-79.39106269999999
9 Tecumseth St 212 Toronto,1,1,Condo Apt Apartment,2200,0-499,C10417301,0,499,249.5,Condo Apartment,Apartment,43.6410139,-79.4037653
33 Frederick Todd Way 413 Toronto,1,1,Condo Apt Apartment,2200,500-599,C10420015,500,599,549.5,Condo Apartment,Apartment,43.7136019,-79.360691
127 Broadway Ave 1008 Toronto,1+1,1,Condo Apt Apartment,2200,500-599,C10422717,500,599,549.5,Condo Apartment,Apartment,43.7103794,-79.3921761
90 Glen Everest Rd 116 Toronto,1+1,1,Condo Apt Apartment,2200,600-699,E9417654,600,699,649.5,Condo Apartment,Apartment,43.7031342,-79.25277299999999
90 Canon Jackson Dr TH 111 Toronto,1,1,Condo Townhouse Apartment,2200,500-599,W9505757,500,599,549.5,Condo Townhouse,Apartment,43.6981954,-79.47256469999999
250 Lawrence Ave W 418 Toronto,1+1,1,Condo Apt Apartment,2200,500-599,C10424139,500,599,549.5,Condo Apartment,Apartment,43.7230148,-79.4137126
10 Laidlaw St 710 Toronto,1+1,1,Condo Townhouse Apartment,2200,500-599,W9378898,500,599,549.5,Condo Townhouse,Apartment,43.639782,-79.4266526
12 Bonnycastle St 721 Toronto,1,1,Condo Apt Apartment,2200,500-599,C10365057,500,599,549.5,Condo Apartment,Apartment,43.6460368,-79.3649192
311 Richmond St E 901 Toronto,1,1,Condo Apt Apartment,2200,500-599,C10432117,500,599,549.5,Condo Apartment,Apartment,43.6532349,-79.36935500000001
58 Marine Parade Dr 328 Toronto,1,1,Condo Apt Apartment,2200,0-499,W10417997,0,499,249.5,Condo Apartment,Apartment,43.6274861,-79.47674049999999
87 Peter St 1803 Toronto,1,1,Condo Apt Apartment,2200,500-599,C10424591,500,599,549.5,Condo Apartment,Apartment,43.6469314,-79.3924035
51 Trolley Cres 1110 Toronto,1,1,Condo Apt Apartment,2200,500-599,C10409337,500,599,549.5,Condo Apartment,Apartment,43.6569809,-79.355378
195 McCaul St 209 Toronto,1+1,1,Condo Apt Apartment,2200,500-599,C9770520,500,599,549.5,Condo Apartment,Apartment,43.6567194,-79.39214460000001
10 Graphophone Grve 806 Toronto,1,1,Condo Apt Apartment,2200,500-599,W9354033,500,599,549.5,Condo Apartment,Apartment,43.667448,-79.4422103
127 Broadway Ave 314 Toronto,1,1,Condo Apt Apartment,2200,500-599,C10432205,500,599,549.5,Condo Apartment,Apartment,43.7103794,-79.3921761
425 Front St E 811 Toronto,1+1,1,Condo Apt Apartment,2200,500-599,C9418042,500,599,549.5,Condo Apartment,Apartment,43.6526799,-79.35710999999999
155 Legion Rd 1812 Toronto,1,1,Condo Apt Apartment,2200,500-599,W10422107,500,599,549.5,Condo Apartment,Apartment,43.6239698,-79.4884113
425 FRONT St E 711 Toronto,1+1,1,Condo Apt Apartment,2200,500-599,C9508601,500,599,549.5,Condo Apartment,Apartment,43.6526799,-79.35710999999999
25 Oxley St 803 Toronto,1,1,Condo Apt Apartment,2200,500-599,C9378627,500,599,549.5,Condo Apartment,Apartment,43.6462529,-79.3944679
219 Dundas St E Ph106 Toronto,1+1,1,Condo Apt Apartment,2200,500-599,C9390631,500,599,549.5,Condo Apartment,Apartment,43.657581,-79.37289
327 King St W 901 Toronto,1,1,Condo Apt Apartment,2200,0-499,C9510797,0,499,249.5,Condo Apartment,Apartment,43.6461914,-79.39106269999999
195 McCaul St 615 Toronto,1+1,1,Condo Apt Apartment,2200,500-599,C10413423,500,599,549.5,Condo Apartment,Apartment,43.6567194,-79.39214460000001
77 Shuter St 2511 Toronto,1,1,Condo Apt Apartment,2200,0-499,C10433149,0,499,249.5,Condo Apartment,Apartment,43.6549921,-79.375121
50 Ordnance St 904 Toronto,1,1,Condo Apt Apartment,2200,500-599,C9416789,500,599,549.5,Condo Apartment,Apartment,43.6397778,-79.40995889999999
105 Victoria St Lph4 Toronto,1,1,Condo Apt Apartment,2200,600-699,C9344215,600,699,649.5,Condo Apartment,Apartment,43.6521328,-79.3777157
25 Richmond St E 308 Toronto,1,1,Comm Element Condo Apartment,2200,0-499,C10884981,0,499,249.5,Common Element Condo,Apartment,43.6519017,-79.37721650000002
195 McCaul St 223 Toronto,1,1,Condo Apt Apartment,2200,500-599,C9742227,500,599,549.5,Condo Apartment,Apartment,43.6567194,-79.39214460000001
571 Prince Edward Dr N 401 Toronto,1,1,Comm Element Condo Apartment,2200,500-599,W10431056,500,599,549.5,Common Element Condo,Apartment,43.6604228,-79.50997459999999
3 Michael Power Pl 1801 Toronto,1,1,Condo Apt Apartment,2200,500-599,W10885000,500,599,549.5,Condo Apartment,Apartment,43.6440199,-79.5288851
45 Baseball Pl 1003 Toronto,1,1,Condo Apt Apartment,2200,500-599,E10418374,500,599,549.5,Condo Apartment,Apartment,43.658096,-79.351027
5039 Finch Ave E 107 Toronto,1,1,Condo Apt Apartment,2200,600-699,E10417543,600,699,649.5,Condo Apartment,Apartment,43.8080018,-79.2649265
50 Power St 405 Toronto,1+1,1,Condo Apt Apartment,2200,500-599,C10423519,500,599,549.5,Condo Apartment,Apartment,43.6543821,-79.3630452
11 Brunel Crt 4905 Toronto,1,1,Condo Apt Apartment,2200,500-599,C9767816,500,599,549.5,Condo Apartment,Apartment,43.6394086,-79.3932334
82 Dalhousie St 3906 Toronto,1,1,Condo Apt Apartment,2200,0-499,C10365622,0,499,249.5,Condo Apartment,Apartment,43.655802,-79.3764407
1410 Dupont St 702 Toronto,1,1,Condo Apt Apartment,2200,500-599,W10413097,500,599,549.5,Condo Apartment,Apartment,43.66710279999999,-79.4474491
5 Soudan Ave N 909 Toronto,1,1,Condo Apt Apartment,2200,0-499,C10416180,0,499,249.5,Condo Apartment,Apartment,43.70432539999999,-79.39716709999999
158 Front St E 1310 Toronto,1,1,Condo Apt Apartment,2200,0-499,C10425734,0,499,249.5,Condo Apartment,Apartment,43.6503838,-79.36868199999999
377 Madison Ave 523 Toronto,1,1,Condo Apt Apartment,2200,0-499,C9385582,0,499,249.5,Condo Apartment,Apartment,43.6771071,-79.40594229999999
99 Broadway Ave 3607 Toronto,1+1,1,Condo Apt Apartment,2200,0-499,C10426132,0,499,249.5,Condo Apartment,Apartment,43.7105663,-79.3932957
99 Broadway Ave 2812 Toronto,1,1,Condo Apt Apartment,2200,500-599,C9513527,500,599,549.5,Condo Apartment,Apartment,43.7105663,-79.3932957
715 Don Mills Rd 1005 Toronto,1+1,1,Condo Apt Apartment,2200,600-699,C10416830,600,699,649.5,Condo Apartment,Apartment,43.71054609999999,-79.333697
90 Broadview Ave 513 Toronto,1,1,Condo Apt Loft,2200,0-499,E10221817,0,499,249.5,Condo Apartment,Loft,43.6579923,-79.3497395
400 Adelaide St E 1612 Toronto,1,1,Condo Apt Apartment,2200,600-699,C10430583,600,699,649.5,Condo Apartment,Apartment,43.65278139999999,-79.3677616
9 Tecumseth St 508 Toronto,1,1,Condo Apt Apartment,2200,0-499,C10441173,0,499,249.5,Condo Apartment,Apartment,43.6410139,-79.4037653
127 Broadway Ave 1710 Toronto,1,1,Condo Apt Apartment,2200,0-499,C10431949,0,499,249.5,Condo Apartment,Apartment,43.7103794,-79.3921761
138 Downes St 3116 Toronto,1,1,Condo Apt Apartment,2200,500-599,C10415756,500,599,549.5,Condo Apartment,Apartment,43.6446392,-79.3713451
117 Broadway Ave 610 Toronto,1,1,Condo Apt Apartment,2200,500-599,C10432697,500,599,549.5,Condo Apartment,Apartment,43.71035699999999,-79.3925946
11 Brunel Crt 5109 Toronto,1,1,Condo Apt Apartment,2200,0-499,C10427986,0,499,249.5,Condo Apartment,Apartment,43.6394086,-79.3932334
20 O'neill Rd 431 Toronto,1,1,Condo Apt Apartment,2200,500-599,C10403187,500,599,549.5,Condo Apartment,Apartment,43.7321154,-79.34379340000001
8 Tippett Rd 503 Toronto,1,1,Condo Apt Apartment,2200,500-599,C9362809,500,599,549.5,Condo Apartment,Apartment,43.7324138,-79.4468862
5 St Joseph St 1206 Toronto,1,1,Condo Apt Apartment,2200,500-599,C9510311,500,599,549.5,Condo Apartment,Apartment,43.6657586,-79.3856777
36 Zorra St 329 Toronto,1,1,Condo Apt Apartment,2200,500-599,W10440984,500,599,549.5,Condo Apartment,Apartment,43.619725,-79.5218167
1 Market St 2807 Toronto,1,1,Condo Apt Apartment,2200,0-499,C9514474,0,499,249.5,Condo Apartment,Apartment,43.6468752,-79.3710718
33 Frederick Todd Way 431 Toronto,1,1,Condo Apt Apartment,2200,500-599,C10426140,500,599,549.5,Condo Apartment,Apartment,43.7136019,-79.360691
357 King St W 2804 Toronto,1,1,Condo Apt Apartment,2200,500-599,C10849513,500,599,549.5,Condo Apartment,Apartment,43.6457762,-79.3925063
20 Edward St 1519 Toronto,1,1,Condo Apt Apartment,2200,0-499,C9509262,0,499,249.5,Condo Apartment,Apartment,43.6569939,-79.3821206
111 St Clair Ave W 603 Toronto,1,1,Condo Apt Apartment,2200,500-599,C10426122,500,599,549.5,Condo Apartment,Apartment,43.6867098,-79.3992581
20 Bruyeres Mews 513 Toronto,1,1,Condo Apt Apartment,2200,0-499,C10440632,0,499,249.5,Condo Apartment,Apartment,43.6375024,-79.4009141
99 Broadway Ave 613 Toronto,1,1,Condo Apt Apartment,2200,0-499,C10429869,0,499,249.5,Condo Apartment,Apartment,43.7105663,-79.3932957
36 Park Lawn Rd 3804 Toronto,1,1,Condo Apt Apartment,2200,500-599,W9303869,500,599,549.5,Condo Apartment,Apartment,43.6235942,-79.4845177
60 Orchid Place Dr 11 Toronto,1,1,Condo Townhouse Stacked Townhse,2200,500-599,E9379472,500,599,549.5,Condo Townhouse,Stacked Townhse,43.7933433,-79.23640449999999
16 McAdam Ave 511 Toronto,1,1,Condo Apt Apartment,2200,0-499,W9512927,0,499,249.5,Condo Apartment,Apartment,43.7229146,-79.4571199
2150 Lawrence Ave 1606 Toronto,1+1,1,Condo Apt Apartment,2200,600-699,E10431679,600,699,649.5,Condo Apartment,Apartment,43.6989877,-79.52072199999999
127 Broadway Ave 1104 Toronto,1+1,1,Condo Apt Apartment,2200,500-599,C10441268,500,599,549.5,Condo Apartment,Apartment,43.7103794,-79.3921761
319 Jarvis St LPH03 Toronto,1,1,Condo Apt Apartment,2200,0-499,C9512453,0,499,249.5,Condo Apartment,Apartment,43.6597863,-79.3753128
15 Lower Jarvis St 2902 Toronto,1,1,Condo Apt Apartment,2200,500-599,C9362270,500,599,549.5,Condo Apartment,Apartment,43.6452369,-79.36924429999999
5 Defries St 3007 Toronto,1,1,Condo Apt Apartment,2200,0-499,C9250348,0,499,249.5,Condo Apartment,Apartment,43.6605705,-79.3563724
132 Berkeley St 221 Toronto,1,1,Condo Apt Apartment,2200,0-499,C9767462,0,499,249.5,Condo Apartment,Apartment,43.6547516,-79.3659545
215 Queen St W 1701 Toronto,1,1,Condo Apt Apartment,2200,0-499,C9796172,0,499,249.5,Condo Apartment,Apartment,43.6504655,-79.3878063
15 Iceboat Terr 2001 Toronto,1+0,1,Condo Apt Apartment,2200,500-599,C10416896,500,599,549.5,Condo Apartment,Apartment,43.6405556,-79.3968958
15 Bruyeres Mews 312 Toronto,1,1,Condo Apt Apartment,2200,500-599,C10412429,500,599,549.5,Condo Apartment,Apartment,43.63722930000001,-79.4007335
127 Broadway Ave 1004 Toronto,1+1,1,Condo Apt Apartment,2200,500-599,C10427189,500,599,549.5,Condo Apartment,Apartment,43.7103794,-79.3921761
6127 Steeles Ave W Toronto,1,1,Condo Apt Apartment,2200,1000-1199,W9234973,1000,1199,1099.5,Condo Apartment,Apartment,43.7642118,-79.573827
2033 Kennedy Rd 1002 Toronto,1,1,Condo Apt Apartment,2200,0-499,E9768432,0,499,249.5,Condo Apartment,Apartment,43.7769928,-79.28389469999999
30 Meadowglen Pl 507 Toronto,1,1,Condo Apt Apartment,2200,0-499,E10404818,0,499,249.5,Condo Apartment,Apartment,43.7746779,-79.2305336
501 Yonge St 4104 Toronto,1,1,Condo Apt Apartment,2200,0-499,C9395874,0,499,249.5,Condo Apartment,Apartment,43.6631881,-79.3836001
96 St Patrick St 511 Toronto,1,1,Condo Apt Apartment,2200,0-499,C10411605,0,499,249.5,Condo Apartment,Apartment,43.652909,-79.389963
25 Richmond St E 2313 Toronto,1,1,Condo Apt Apartment,2200,0-499,C10874769,0,499,249.5,Condo Apartment,Apartment,43.6519017,-79.37721650000002
60 Princess St 353 SE Toronto,1,1,Condo Apt Apartment,2200,500-599,C10424827,500,599,549.5,Condo Apartment,Apartment,43.6495699,-79.36650379999999
863 St. Clair Ave W 202 Toronto,1,1,Condo Apt Apartment,2200,500-599,C10432363,500,599,549.5,Condo Apartment,Apartment,43.6798925,-79.43293349999999
195 McCaul St 222 Toronto,1,1,Condo Apt Apartment,2200,500-599,C9723957,500,599,549.5,Condo Apartment,Apartment,43.6567194,-79.39214460000001
319 Jarvis St 4805 Toronto,1,1,Condo Apt Apartment,2200,0-499,C10402903,0,499,249.5,Condo Apartment,Apartment,43.6597863,-79.3753128
17 Dundonald St 510 Toronto,1,1,Condo Apt Apartment,2200,0-499,C9364966,0,499,249.5,Condo Apartment,Apartment,43.6659283,-79.383465
77 Mutual St 2006 Toronto,1,1,Condo Apt Apartment,2200,0-499,C9769551,0,499,249.5,Condo Apartment,Apartment,43.6561607,-79.3750714
1787 St Clair Ave W 717 Toronto,1+1,1,Condo Apt Multi-Level,2200,500-599,W9350447,500,599,549.5,Condo Apartment,Multi-Level,43.6735145,-79.46209689999999
955 Bay St 418 Toronto,1,1,Condo Apt Apartment,2200,500-599,C10477029,500,599,549.5,Condo Apartment,Apartment,43.6646319,-79.3869529
135 East Liberty St 1109 Toronto,1,1,Condo Apt Apartment,2200,0-499,C9769904,0,499,249.5,Condo Apartment,Apartment,43.638566,-79.416906
33 Charles St E 2312 Toronto,1,1,Condo Apt Apartment,2200,0-499,C9386396,0,499,249.5,Condo Apartment,Apartment,43.6685778,-79.3844795
50 Charles St E 1608 Toronto,1,1,Condo Apt Apartment,2200,0-499,C10432488,0,499,249.5,Condo Apartment,Apartment,43.6693054,-79.3838586
2369 Danforth Ave 811 Toronto,1,1,Condo Apt Apartment,2200,0-499,E9471552,0,499,249.5,Condo Apartment,Apartment,43.6869919,-79.3061336
3 Market St 210 Toronto,1+1,1,Condo Apt Apartment,2200,500-599,C10417047,500,599,549.5,Condo Apartment,Apartment,43.6472534,-79.3711658
251 Jarvis St 2601 Toronto,1,1,Condo Apt Apartment,2200,600-699,C9769779,600,699,649.5,Condo Apartment,Apartment,43.65737670000001,-79.3744501
33 Helendale Ave 1111 Toronto,1,1,Condo Apt Apartment,2200,0-499,C10415858,0,499,249.5,Condo Apartment,Apartment,43.7087661,-79.3995613
478 Caledonia Rd 305 Toronto,1,1,Condo Apt Apartment,2200,500-599,W8477360,500,599,549.5,Condo Apartment,Apartment,43.6892951,-79.46100919999999
30 Inn On The Park Dr 4206 Toronto,1,1,Condo Apt Apartment,2200,500-599,C9343912,500,599,549.5,Condo Apartment,Apartment,43.7190597,-79.3485493
127 Broadway Ave 2006 Toronto,1,1,Condo Apt Apartment,2200,500-599,C10874755,500,599,549.5,Condo Apartment,Apartment,43.7103794,-79.3921761
87 Peter St 3415 Toronto,1,1,Condo Apt Apartment,2200,0-499,C10463637,0,499,249.5,Condo Apartment,Apartment,43.6469314,-79.3924035
195 McCaul St 712 Toronto,1+1,1,Condo Apt Apartment,2200,500-599,C10417111,500,599,549.5,Condo Apartment,Apartment,43.6567194,-79.39214460000001
1910 Lakeshore Blvd 806 Toronto,1,1,Condo Apt Apartment,2200,500-599,W9385489,500,599,549.5,Condo Apartment,Apartment,43.636309,-79.46625759999999
3091 Dufferin St 803 Toronto,1,1,Condo Apt Apartment,2200,0-499,W10427746,0,499,249.5,Condo Apartment,Apartment,43.71531359999999,-79.454618
111 St Clair Ave W 323 Toronto,1,1,Condo Apt Apartment,2200,500-599,C10424203,500,599,549.5,Condo Apartment,Apartment,43.6867098,-79.3992581
238 Simcoe St 1602 Toronto,1,1,Condo Apt Apartment,2200,0-499,C9507137,0,499,249.5,Condo Apartment,Apartment,43.6534014,-79.38904769999999
219 Dundas St E 705 Toronto,1,1,Condo Apt Apartment,2200,500-599,C10415661,500,599,549.5,Condo Apartment,Apartment,43.657581,-79.37289
238 Simcoe St 3603 Toronto,1,1,Condo Apt Apartment,2200,500-599,C10433290,500,599,549.5,Condo Apartment,Apartment,43.6534014,-79.38904769999999
1420 Dupont St 901 Toronto,1+1,1,Condo Apt Apartment,2200,500-599,W10929187,500,599,549.5,Condo Apartment,Apartment,43.6667421,-79.4482712
82 Dalhousie St 3105 Toronto,1,1,Condo Apt Apartment,2200,0-499,C10428748,0,499,249.5,Condo Apartment,Apartment,43.655802,-79.3764407
127 Broadway Ave 316s Toronto,1,1,Condo Apt Apartment,2200,500-599,C10424379,500,599,549.5,Condo Apartment,Apartment,43.7103794,-79.3921761
126 Simcoe St 1402 Toronto,1,1,Condo Apt Apartment,2200,0-499,C9506849,0,499,249.5,Condo Apartment,Apartment,43.64897269999999,-79.3872946
77 Mutual St 1903 Toronto,1,1,Condo Apt Apartment,2200,0-499,C9300948,0,499,249.5,Condo Apartment,Apartment,43.6561607,-79.3750714
42 Charles St E 4706 Toronto,1,1,Condo Apt Apartment,2200,0-499,C9416838,0,499,249.5,Condo Apartment,Apartment,43.6695837,-79.38416389999999
238 Simcoe St 2402 Toronto,1,1,Condo Apt Apartment,2200,0-499,C10402695,0,499,249.5,Condo Apartment,Apartment,43.6534014,-79.38904769999999
560 King St W 416 Toronto,1,1,Condo Apt Apartment,2200,0-499,C10884943,0,499,249.5,Condo Apartment,Apartment,43.64492180000001,-79.3990768
500 Sherbourne St 2701 Toronto,1,1,Condo Apt Apartment,2200,500-599,C9389653,500,599,549.5,Condo Apartment,Apartment,43.6679021,-79.37568189999999
275 Village Green Sq 1519 Toronto,1,1,Condo Apt Apartment,2200,500-599,E10428897,500,599,549.5,Condo Apartment,Apartment,43.77935799999999,-79.2830046
18 Rean 224 Toronto,1,1,Condo Apt Apartment,2200,0-499,C9508326,0,499,249.5,Condo Apartment,Apartment,43.7672411,-79.3832479
318 Richmond St W 614 Toronto,1+0,1,Condo Apt Apartment,2200,500-599,C9768309,500,599,549.5,Condo Apartment,Apartment,43.6478501,-79.3958828
38 Joe Shuster Way 327 Toronto,1,1,Condo Apt Apartment,2200,500-599,C9505767,500,599,549.5,Condo Apartment,Apartment,43.6404912,-79.4243391
318 Richmond St W 2404 Toronto,1,1,Condo Apt Apartment,2215,500-599,C10405750,500,599,549.5,Condo Apartment,Apartment,43.64895629999999,-79.39220739999999
55 Ontario St 1707 Toronto,1,1,Condo Apt Apartment,2225,0-499,C10419804,0,499,249.5,Condo Apartment,Apartment,43.653598,-79.3662319
185 Roehampton Ave 610 Toronto,1+1,1,Condo Apt Apartment,2225,500-599,C9418436,500,599,549.5,Condo Apartment,Apartment,43.7090751,-79.3928229
68 Canterbury Pl 1603 Toronto,1,1,Condo Apt Apartment,2230,500-599,C10929157,500,599,549.5,Condo Apartment,Apartment,43.77395629999999,-79.4155634
775 King St W 1008 Toronto,1,1,Condo Apt Apartment,2230,500-599,C10434137,500,599,549.5,Condo Apartment,Apartment,43.64302199999999,-79.40618429999999
325 Yorkland Blvd 3001 Toronto,1,1,Condo Apt Apartment,2233,0-499,C9511051,0,499,249.5,Condo Apartment,Apartment,43.7740203,-79.3323827
28 Wellesley St E 2105 Toronto,1,1,Condo Apt Apartment,2240,0-499,C9986664,0,499,249.5,Condo Apartment,Apartment,43.6655834,-79.3827749
127 Broadway Ave 708 Toronto,1+1,1,Condo Apt Apartment,2240,500-599,C10416051,500,599,549.5,Condo Apartment,Apartment,43.7103794,-79.3921761
1410 Dupont St 1907 Toronto,1,1,Condo Apt Apartment,2243,500-599,W9868343,500,599,549.5,Condo Apartment,Apartment,43.66710279999999,-79.4474491
2525 Bathurst St 605 Toronto,1,1,Condo Apt Apartment,2245,0-499,C10404928,0,499,249.5,Condo Apartment,Apartment,43.7059936,-79.4261248
763 Woodbine Ave 401 Toronto,1,1,Other Apartment,2245,500-599,E10417195,500,599,549.5,Other,Apartment,43.6807768,-79.3104212
30 Tretti Way 629 Toronto,1,1,Condo Apt Apartment,2245,500-599,C9391362,500,599,549.5,Condo Apartment,Apartment,43.7329753,-79.4486331
2525 Bathurst St 304 Toronto,1,1,Condo Apt Apartment,2245,500-599,C9512479,500,599,549.5,Condo Apartment,Apartment,43.7059936,-79.4261248
215 Queen St W 1802 Toronto,1+1,1,Condo Apt Apartment,2249,0-499,C9388437,0,499,249.5,Condo Apartment,Apartment,43.6504655,-79.3878063
1461 Lawrence Ave W 1811 Toronto,1,1,Condo Apt Apartment,2249,0-499,W9349183,0,499,249.5,Condo Apartment,Apartment,43.7074982,-79.4797966
8 Eglinton Ave 3203 Toronto,1,1,Condo Apt Apartment,2250,500-599,C10874696,500,599,549.5,Condo Apartment,Apartment,43.7072077,-79.3977826
14 York St 2111 Toronto,1,1,Comm Element Condo Apartment,2250,500-599,C10854796,500,599,549.5,Common Element Condo,Apartment,43.64195290000001,-79.38201629999999
111 Bathurst St 413 Toronto,1,1,Condo Apt Apartment,2250,500-599,C10431108,500,599,549.5,Condo Apartment,Apartment,43.6448228,-79.40280369999999
121 Lower Sherbourne St 460 SW Toronto,1+1,2,Condo Apt Apartment,2250,500-599,C9402002,500,599,549.5,Condo Apartment,Apartment,43.6495044,-79.3670392
2201 Kingston Rd 117 Toronto,1,1,Condo Apt Apartment,2250,600-699,E9468493,600,699,649.5,Condo Apartment,Apartment,43.7031558,-79.2528768
50 Power St 512 Toronto,1+1,1,Condo Apt Apartment,2250,500-599,C10408244,500,599,549.5,Condo Apartment,Apartment,43.6543821,-79.3630452
425 FRONT St E 415 Toronto,1+1,1,Condo Apt Apartment,2250,500-599,C9418017,500,599,549.5,Condo Apartment,Apartment,43.6526799,-79.35710999999999
863 St. Clair Ave W 502 Toronto,1,1,Condo Apt Apartment,2250,500-599,C10433490,500,599,549.5,Condo Apartment,Apartment,43.6798925,-79.43293349999999
4955 Yonge St 718 Toronto,1,1,Condo Apt Apartment,2250,0-499,C9418513,0,499,249.5,Condo Apartment,Apartment,43.7650353,-79.4115219
19 Bathurst St 815 Toronto,1,1,Condo Apt Apartment,2250,500-599,C10418502,500,599,549.5,Condo Apartment,Apartment,43.6375621,-79.3996469
38 Dan Leckie Way 2606 Toronto,1,1,Condo Apt Apartment,2250,600-699,C9378277,600,699,649.5,Condo Apartment,Apartment,43.6374607,-79.39792589999999
57 St. Joseph St 2908 Toronto,1,1,Condo Apt Apartment,2250,0-499,C10423466,0,499,249.5,Condo Apartment,Apartment,43.6654292,-79.3880303
6 Humberline Dr 319 Toronto,1+1,1,Condo Apt Apartment,2250,800-899,W10441528,800,899,849.5,Condo Apartment,Apartment,43.73072330000001,-79.61089489999999
90 Stadium Rd 613 Toronto,1,1,Condo Apt Apartment,2250,500-599,C9395595,500,599,549.5,Condo Apartment,Apartment,43.6348555,-79.4012965
169 Fort York Blvd 319 Toronto,1,1,Condo Apt Apartment,2250,500-599,C9415695,500,599,549.5,Condo Apartment,Apartment,43.63849889999999,-79.40094909999999
33 Helendale Ave 1306 Toronto,1,1,Condo Apt Apartment,2250,0-499,C9394266,0,499,249.5,Condo Apartment,Apartment,43.7087661,-79.3995613
159 Dundas St E 2904 Toronto,1,1,Condo Apt Apartment,2250,500-599,C9509643,500,599,549.5,Condo Apartment,Apartment,43.6567653,-79.3749976
151 Dan Leckie Way 541 Toronto,1+1,1,Condo Apt Apartment,2250,600-699,C10408655,600,699,649.5,Condo Apartment,Apartment,43.6398746,-79.3978691
2221 Yonge St 3907 Toronto,1,1,Condo Apt Apartment,2250,0-499,C10418554,0,499,249.5,Condo Apartment,Apartment,43.7060642,-79.3977203
195 McCaul St 313 Toronto,1+1,1,Condo Apt Apartment,2250,500-599,C9364577,500,599,549.5,Condo Apartment,Apartment,43.6567194,-79.39214460000001
1030 King St W 936 Toronto,1,1,Condo Apt Apartment,2250,0-499,C9508847,0,499,249.5,Condo Apartment,Apartment,43.6415878,-79.415938
30 Herons Hill Way 1904 Toronto,1,1,Condo Apt Apartment,2250,0-499,C9395855,0,499,249.5,Condo Apartment,Apartment,43.7749383,-79.3352515
161 Roehampton Ave 1005 Toronto,1,1,Condo Apt Apartment,2250,500-599,C10416155,500,599,549.5,Condo Apartment,Apartment,43.70877249999999,-79.3937821
55 Ann O'Reilly Rd 1003 Toronto,1,1,Condo Apt Apartment,2250,500-599,C9352482,500,599,549.5,Condo Apartment,Apartment,43.77358,-79.3295308
15 Holmes Ave 1906 Toronto,1,1,Condo Apt Apartment,2250,0-499,C9371233,0,499,249.5,Condo Apartment,Apartment,43.777866,-79.41419429999999
243 Perth Ave 210 Toronto,1,1,Condo Apt Apartment,2250,500-599,W10430815,500,599,549.5,Condo Apartment,Apartment,43.6615198,-79.450345
135 East Liberty St 1809 Toronto,1,1,Condo Apt Apartment,2250,0-499,C9365012,0,499,249.5,Condo Apartment,Apartment,43.638566,-79.416906
1928 Lake Shore Blvd W 2315 Toronto,1,1,Condo Apt Apartment,2250,0-499,W10415373,0,499,249.5,Condo Apartment,Apartment,43.6355926,-79.4680985
31 Bales Ave 1109 Toronto,1,1,Condo Apt Apartment,2250,500-599,C10845470,500,599,549.5,Condo Apartment,Apartment,43.7601677,-79.4088938
80 Esther Lorrie Dr 717 Toronto,1,1,Condo Apt Apartment,2250,500-599,W9399053,500,599,549.5,Condo Apartment,Apartment,43.731918,-79.57693739999999
2033 Kennedy Rd 1102 Toronto,1,1,Condo Apt Apartment,2250,0-499,E10417126,0,499,249.5,Condo Apartment,Apartment,43.7769928,-79.28389469999999
323 Richmond St E 1114 Toronto,1,1,Condo Apt Apartment,2250,500-599,C9512250,500,599,549.5,Condo Apartment,Apartment,43.6533464,-79.3684691
12 Bonnycastle St 723 Toronto,1,1,Condo Apt Apartment,2250,500-599,C9360038,500,599,549.5,Condo Apartment,Apartment,43.6460368,-79.3649192
127 Broadway Ave 402 Toronto,1,1,Condo Apt Apartment,2250,500-599,C10421407,500,599,549.5,Condo Apartment,Apartment,43.7103794,-79.3921761
327 King St W 1401 Toronto,1,1,Condo Apt Apartment,2250,0-499,C9349003,0,499,249.5,Condo Apartment,Apartment,43.6461914,-79.39106269999999
2031 Kennedy Rd 2319 Toronto,1,1,Condo Apt Apartment,2250,0-499,E10408105,0,499,249.5,Condo Apartment,Apartment,43.7771628,-79.2842668
250 Lawrence Ave W 601 Toronto,1,1,Condo Apt Apartment,2250,0-499,C10415206,0,499,249.5,Condo Apartment,Apartment,43.7230148,-79.4137126
313 Richmond St 756 Toronto,1+1,1,Condo Apt Apartment,2250,500-599,C10927337,500,599,549.5,Condo Apartment,Apartment,43.6482588,-79.39311339999999
55 Charles St 4207 Toronto,1,1,Condo Apt Apartment,2250,500-599,C10707831,500,599,549.5,Condo Apartment,Apartment,43.6688239,-79.3835572
30 Samuel Wood Way 1907 Toronto,1,1,Condo Apt Apartment,2250,0-499,W10422250,0,499,249.5,Condo Apartment,Apartment,43.63469,-79.54056
629 King St W 818 Toronto,1,1,Condo Apt Apartment,2250,0-499,C9387115,0,499,249.5,Condo Apartment,Apartment,43.644001,-79.4015398
33 Isabella St 606 Toronto,1,1,Condo Apt Apartment,2250,500-599,C9386207,500,599,549.5,Condo Apartment,Apartment,43.6676575,-79.3837045
33 Isabella St 2311 Toronto,1,1,Condo Apt Apartment,2250,0-499,C9384966,0,499,249.5,Condo Apartment,Apartment,43.6676575,-79.3837045
3091 Dufferin Ave 211 Toronto,1,1,Condo Apt Apartment,2250,500-599,W10428037,500,599,549.5,Condo Apartment,Apartment,43.71531359999999,-79.454618
56 Annie Craig Dr 708 Toronto,1,1,Condo Apt Apartment,2250,0-499,W10422414,0,499,249.5,Condo Apartment,Apartment,43.6254787,-79.4788159
127 Broadway Ave 808 Toronto,1+1,1,Condo Townhouse Apartment,2250,500-599,C10442868,500,599,549.5,Condo Townhouse,Apartment,43.7103794,-79.3921761
28 Widmer St 4821 Toronto,1,1,Condo Apt Apartment,2250,500-599,C10405608,500,599,549.5,Condo Apartment,Apartment,43.6471784,-79.39160629999999
197 Yonge St 3603 Toronto,1,1,Condo Apt Apartment,2250,500-599,C9385508,500,599,549.5,Condo Apartment,Apartment,43.65343590000001,-79.3791875
10 Park Lawn Rd 3106 Toronto,1,1,Condo Apt Apartment,2250,500-599,W10405795,500,599,549.5,Condo Apartment,Apartment,43.6233108,-79.48375089999999
219 Dundas St E 1901 Toronto,1,1,Condo Apt Apartment,2250,500-599,C10428282,500,599,549.5,Condo Apartment,Apartment,43.656325,-79.380903
68 Abell St 536 Toronto,1,1,Condo Apt Apartment,2250,0-499,C10433486,0,499,249.5,Condo Apartment,Apartment,43.6423205,-79.42436239999999
2031 Kennedy Rd 2518 Toronto,1,1,Condo Apt Apartment,2250,700-799,E10411414,700,799,749.5,Condo Apartment,Apartment,43.7771628,-79.2842668
181 Village Green Sq 1717 Toronto,1+1,1,Condo Apt Apartment,2250,600-699,E10893872,600,699,649.5,Condo Apartment,Apartment,43.7788896,-79.2814265
775 King St W 908 Toronto,1,1,Condo Apt Apartment,2250,500-599,C9380152,500,599,549.5,Condo Apartment,Apartment,43.64302199999999,-79.40618429999999
18 Mondeo Dr 1032 Toronto,1,1,Condo Apt Apartment,2250,700-799,E10929195,700,799,749.5,Condo Apartment,Apartment,43.7642438,-79.289862
45 Charles St E 3708 Toronto,1,1,Condo Apt Apartment,2250,500-599,C10415169,500,599,549.5,Condo Apartment,Apartment,43.6689111,-79.383977
170 Bayview Ave 1501 Toronto,1,1,Condo Apt Apartment,2250,500-599,C10430800,500,599,549.5,Condo Apartment,Apartment,43.6554553,-79.35384660000001
28 Widmer St 3721 Toronto,1,1,Condo Apt Apartment,2250,500-599,C9394574,500,599,549.5,Condo Apartment,Apartment,43.6471784,-79.39160629999999
460 Adelaide St E 501 Toronto,1,1,Condo Apt Apartment,2250,600-699,C10415720,600,699,649.5,Condo Apartment,Apartment,43.6529344,-79.36660599999999
3 Pemberton Ave 709 Toronto,1,1,Condo Apt Apartment,2250,500-599,C10440849,500,599,549.5,Condo Apartment,Apartment,43.7805043,-79.413787
1030 King St W 308 Toronto,1,1,Condo Apt Apartment,2250,0-499,C9379352,0,499,249.5,Condo Apartment,Apartment,43.6415878,-79.415938
250 LAWRENCE Ave W 415 Toronto,1+1,1,Condo Apt Apartment,2250,500-599,C10440709,500,599,549.5,Condo Apartment,Apartment,43.7230148,-79.4137126
4955 Yonge St 818 Toronto,1,1,Condo Apt Apartment,2250,0-499,C9461509,0,499,249.5,Condo Apartment,Apartment,43.7650353,-79.4115219
115 Blue Jays Way 723 Toronto,1,1,Comm Element Condo Apartment,2250,500-599,C10403182,500,599,549.5,Common Element Condo,Apartment,43.6457205,-79.3918198
60 Shuter St 609 Toronto,1,1,Condo Apt Apartment,2250,0-499,C10427149,0,499,249.5,Condo Apartment,Apartment,43.6550609,-79.3760574
21 Vaughan Rd 2207 Toronto,1,1,Condo Apt Apartment,2250,600-699,C9389991,600,699,649.5,Condo Apartment,Apartment,43.6822311,-79.4185933
6 Sonic Way 3101 Toronto,1+1,2,Condo Apt Apartment,2250,600-699,C10420480,600,699,649.5,Condo Apartment,Apartment,43.7194953,-79.3365032
38 Cameron St 425 Toronto,1,1,Condo Apt Apartment,2250,600-699,C9768456,600,699,649.5,Condo Apartment,Apartment,43.64938189999999,-79.39800629999999
65 George Appleton Way 2064 Toronto,1,1,Condo Apt 2-Storey,2250,500-599,W10426318,500,599,549.5,Condo Apartment,2-Storey,43.725101,-79.4791453
15 Lower Jarvis St 3704 Toronto,1,1,Condo Apt Apartment,2250,0-499,C10432749,0,499,249.5,Condo Apartment,Apartment,43.6452369,-79.36924429999999
21 Vaughan Rd 307 Toronto,1,1,Condo Apt Apartment,2250,600-699,C9350733,600,699,649.5,Condo Apartment,Apartment,43.6822311,-79.4185933
1 Scott St 3005 Toronto,1,1,Condo Apt Apartment,2250,0-499,C9306807,0,499,249.5,Condo Apartment,Apartment,43.64682519999999,-79.3751298
159 Wellesley St E 2902 Toronto,1,1,Condo Apt Apartment,2250,0-499,C10413527,0,499,249.5,Condo Apartment,Apartment,43.6667703,-79.3748964
95 George Appleton Way 2162 Toronto,1,1,Condo Townhouse Stacked Townhse,2250,500-599,W9361469,500,599,549.5,Condo Townhouse,Stacked Townhse,43.7248209,-79.4787911
28 Freeland St 1403 Toronto,1,1,Condo Apt Apartment,2250,500-599,C10427170,500,599,549.5,Condo Apartment,Apartment,43.6435887,-79.37399309999999
197 Yonge St 2104 Toronto,1,1,Condo Apt Apartment,2250,500-599,C10415474,500,599,549.5,Condo Apartment,Apartment,43.65343590000001,-79.3791875
108 Peter St 2309 Toronto,1,1,Condo Apt Apartment,2250,0-499,C10430756,0,499,249.5,Condo Apartment,Apartment,43.6476915,-79.3933074
275 Village Green Sq 617 Toronto,1,1,Condo Apt Apartment,2250,0-499,E10404917,0,499,249.5,Condo Apartment,Apartment,43.77935799999999,-79.2830046
33 LOMBARD St 2105 Toronto,1,1,Condo Apt Other,2250,0-499,C10010749,0,499,249.5,Condo Apartment,Other,43.6515439,-79.37537809999999
816 Lansdowne Ave 706 Toronto,1,1,Condo Apt Apartment,2250,500-599,W9300674,500,599,549.5,Condo Apartment,Apartment,43.6656792,-79.4475982
75 Canterbury Pl 2010 Toronto,1,1,Condo Apt Apartment,2250,0-499,C10405056,0,499,249.5,Condo Apartment,Apartment,43.774199,-79.4152874
127 Broadway Ave 1904 Toronto,1+1,1,Condo Apt Apartment,2250,500-599,C10845389,500,599,549.5,Condo Apartment,Apartment,43.7103794,-79.3921761
460 Adelaide St E 2107 Toronto,1+1,1,Condo Apt Apartment,2250,600-699,C10288170,600,699,649.5,Condo Apartment,Apartment,43.6529344,-79.36660599999999
205 Frederick St 713 Toronto,1,1,Condo Apt Apartment,2250,600-699,C10440508,600,699,649.5,Condo Apartment,Apartment,43.6517091,-79.3695845
99 Broadway Ave 2007 Nt Toronto,1,1,Condo Apt Apartment,2250,0-499,C10412459,0,499,249.5,Condo Apartment,Apartment,43.7105663,-79.3932957
20 Thomas Riley Rd W 608 Toronto,1,1,Condo Apt Apartment,2250,500-599,W9356361,500,599,549.5,Condo Apartment,Apartment,43.634172,-79.5406824
21 Lawren Harris Sq 610 Toronto,1+1,1,Condo Apt Apartment,2250,500-599,C10291544,500,599,549.5,Condo Apartment,Apartment,43.65515569999999,-79.35488169999999
251 Jarvis St W 3912 Toronto,1+1,1,Condo Apt Apartment,2250,500-599,C10426615,500,599,549.5,Condo Apartment,Apartment,43.65737670000001,-79.3744501
55 Cooper St 2208 Toronto,1,1,Condo Apt Apartment,2250,500-599,C9416545,500,599,549.5,Condo Apartment,Apartment,43.6449002,-79.37180579999999
760 The Queensway 510 Toronto,1+1,1,Condo Apt Apartment,2250,600-699,W9506428,600,699,649.5,Condo Apartment,Apartment,43.6261426,-79.5049417
1 Rean Dr 1211 Toronto,1,1,Condo Apt Apartment,2250,600-699,C10441424,600,699,649.5,Condo Apartment,Apartment,43.76515029999999,-79.3834741
78 Tecumseth St 1511 Toronto,1,1,Condo Apt Apartment,2250,500-599,C10428771,500,599,549.5,Condo Apartment,Apartment,43.64307549999999,-79.40531580000001
128 Fairview Mall Dr 907 Toronto,1,1,Condo Apt Apartment,2250,0-499,C10402941,0,499,249.5,Condo Apartment,Apartment,43.77997999999999,-79.3449211
181 Village Green Sq 1417 Toronto,1+1,1,Condo Apt Apartment,2250,600-699,E9382922,600,699,649.5,Condo Apartment,Apartment,43.7788896,-79.2814265
2191 Yonge St 604 Toronto,1,1,Condo Apt Apartment,2250,600-699,C10405625,600,699,649.5,Condo Apartment,Apartment,43.70559790000001,-79.397714
50 Brian Harrison Way 1906 Toronto,1,1,Condo Apt Apartment,2250,500-599,E10425273,500,599,549.5,Condo Apartment,Apartment,43.773816,-79.258804
555 Yonge St N #904 Toronto,1,1,Condo Apt Apartment,2250,600-699,C9400576,600,699,649.5,Condo Apartment,Apartment,43.664717,-79.3840893
88 Grangeway Ave 1801 Toronto,1,1,Condo Apt Apartment,2250,600-699,E9513927,600,699,649.5,Condo Apartment,Apartment,43.7741495,-79.2500409
260 Sackville St 912 Toronto,1,1,Condo Apt Multi-Level,2250,500-599,C9359182,500,599,549.5,Condo Apartment,Multi-Level,43.6611235,-79.3637664
170 Bayview Ave 1101 Toronto,1,1,Condo Apt Apartment,2250,500-599,C9379044,500,599,549.5,Condo Apartment,Apartment,43.6554553,-79.35384660000001
36 Zorra St 3101 Toronto,1,1,Comm Element Condo Apartment,2250,0-499,W10423053,0,499,249.5,Common Element Condo,Apartment,43.619725,-79.5218167
458 Richmond St W 704 Toronto,1,1,Condo Apt Apartment,2250,0-499,C9382102,0,499,249.5,Condo Apartment,Apartment,43.6478501,-79.3958828
14 York St 2811 Toronto,1,1,Condo Apt Apartment,2250,500-599,C10432634,500,599,549.5,Condo Apartment,Apartment,43.64195290000001,-79.38201629999999
33 Charles St E 2302 Toronto,1,1,Condo Apt Apartment,2250,0-499,C10430011,0,499,249.5,Condo Apartment,Apartment,43.6685778,-79.3844795
15 Iceboat Terr 2511 Toronto,1,1,Condo Apt Apartment,2250,500-599,C10413624,500,599,549.5,Condo Apartment,Apartment,43.6405556,-79.3968958
500 Wilson Ave 636 Toronto,1+1,2,Condo Apt Apartment,2250,500-599,C10424464,500,599,549.5,Condo Apartment,Apartment,43.7353752,-79.4454727
120 Parliament St 410 Toronto,1+1,1,Condo Apt Apartment,2250,500-599,C9396179,500,599,549.5,Condo Apartment,Apartment,43.6537663,-79.36406769999999
255 Village Green Sq 2709 Toronto,1,1,Condo Apt Apartment,2250,500-599,E10430196,500,599,549.5,Condo Apartment,Apartment,43.7796512,-79.2827293
99 Broadway Ave 2612 Toronto,1,1,Condo Apt Apartment,2250,0-499,C9271845,0,499,249.5,Condo Apartment,Apartment,43.7105663,-79.3932957
33 Isabella St 1710 Toronto,1,1,Condo Apt Apartment,2250,0-499,C9375418,0,499,249.5,Condo Apartment,Apartment,43.6676575,-79.3837045
508 WELLINGTON St W 1002 Toronto,1,1,Condo Apt Apartment,2250,0-499,C9387803,0,499,249.5,Condo Apartment,Apartment,43.6434202,-79.3991997
1 Scott St 2905 Toronto,1,1,Condo Apt Apartment,2250,0-499,C9388855,0,499,249.5,Condo Apartment,Apartment,43.64682519999999,-79.3751298
33 Isabella St 2507 Toronto,1,1,Condo Apt Apartment,2250,500-599,C10407613,500,599,549.5,Condo Apartment,Apartment,43.6676575,-79.3837045
33 Frederick Todd Way 501 Toronto,1+1,1,Condo Apt Apartment,2250,500-599,C10427099,500,599,549.5,Condo Apartment,Apartment,43.7136019,-79.360691
830 Lawrence Ave W 1703 Toronto,1,1,Condo Apt Other,2250,500-599,W9373601,500,599,549.5,Condo Apartment,Other,43.7149909,-79.45438759999999
1928 Lakeshore Blvd W 2603 Toronto,1,1,Condo Apt Apartment,2250,0-499,W10412486,0,499,249.5,Condo Apartment,Apartment,43.6355926,-79.4680985
125 Peter St 2410 Toronto,1,1,Condo Apt Apartment,2250,0-499,C9388510,0,499,249.5,Condo Apartment,Apartment,43.6484754,-79.392676
50 Wellesley St 3901 Toronto,1,1,Condo Apt Apartment,2250,0-499,C10427976,0,499,249.5,Condo Apartment,Apartment,43.6656342,-79.3825671
35 Rolling Mills Rd N613 Toronto,1+1,1,Condo Apt Apartment,2250,500-599,C10405269,500,599,549.5,Condo Apartment,Apartment,43.6530215,-79.3551959
55 Cooper St 4516 Toronto,1,1,Condo Apt Apartment,2250,500-599,C10423757,500,599,549.5,Condo Apartment,Apartment,43.6449002,-79.37180579999999
85 Wood St 3915 Toronto,1,1,Condo Apt Apartment,2250,0-499,C10429815,0,499,249.5,Condo Apartment,Apartment,43.66278639999999,-79.3792921
50 Ordnance St 2804 Toronto,1,1,Condo Apt Apartment,2250,500-599,C10405613,500,599,549.5,Condo Apartment,Apartment,43.6397778,-79.40995889999999
8 Eglinton Ave E 5606 Toronto,1,1,Condo Apt Apartment,2250,500-599,C10441355,500,599,549.5,Condo Apartment,Apartment,43.7072077,-79.3977826
3 Market St 512 Toronto,1,1,Condo Apt Other,2250,500-599,C9419016,500,599,549.5,Condo Apartment,Other,43.6472534,-79.3711658
238 Simcoe St 302 Toronto,1+1,1,Condo Apt Apartment,2250,500-599,C9506415,500,599,549.5,Condo Apartment,Apartment,43.6534014,-79.38904769999999
195 McCaul St 609 Toronto,1+1,1,Condo Apt Apartment,2250,500-599,C9395337,500,599,549.5,Condo Apartment,Apartment,43.6567194,-79.39214460000001
1 Yorkville Ave 2806 Toronto,1,1,Condo Apt Apartment,2250,0-499,C9395113,0,499,249.5,Condo Apartment,Apartment,43.6716254,-79.3877935
215 Queen St W 2015 Toronto,1,1,Condo Apt Apartment,2250,0-499,C10420804,0,499,249.5,Condo Apartment,Apartment,43.6504655,-79.3878063
395 Bloor St E 1607 Toronto,1,1,Comm Element Condo Apartment,2250,500-599,C10707826,500,599,549.5,Common Element Condo,Apartment,43.6719746,-79.3774195
21 Vaughan Rd 1902 Toronto,1,1,Condo Apt Apartment,2250,600-699,C10423810,600,699,649.5,Condo Apartment,Apartment,43.6822311,-79.4185933
25 Telegram Mews 2215 Toronto,1+1,1,Condo Apt Apartment,2250,500-599,C10284861,500,599,549.5,Condo Apartment,Apartment,43.6409971,-79.3946024
2221 Yonge St 1105 Toronto,1+1,1,Condo Apt Apartment,2250,600-699,C9398544,600,699,649.5,Condo Apartment,Apartment,43.7060642,-79.3977203
195 MCCAUL St 516 Toronto,1+1,1,Condo Apt Apartment,2250,500-599,C10408552,500,599,549.5,Condo Apartment,Apartment,43.6567194,-79.39214460000001
100 Dalhousie St 4705 Toronto,1,1,Condo Apt Apartment,2250,0-499,C9270123,0,499,249.5,Condo Apartment,Apartment,43.65631740000001,-79.37669629999999
60 Shuter St 3009 Toronto,1,1,Condo Apt Apartment,2250,0-499,C9509004,0,499,249.5,Condo Apartment,Apartment,43.6550609,-79.3760574
650 King St W 402 Toronto,1,1,Condo Apt Apartment,2250,0-499,C9354188,0,499,249.5,Condo Apartment,Apartment,43.6442687,-79.40177779999999
50 Lombard St 1404 Toronto,1,1,Condo Apt Apartment,2250,500-599,C9415890,500,599,549.5,Condo Apartment,Apartment,43.6518811,-79.3759898
82 Dalhousie St 3615 Toronto,1,1,Condo Apt Apartment,2250,0-499,C9356723,0,499,249.5,Condo Apartment,Apartment,43.655802,-79.3764407
775 King St W 208 Toronto,1,1,Condo Apt Apartment,2250,500-599,C9296149,500,599,549.5,Condo Apartment,Apartment,43.64302199999999,-79.40618429999999
1420 Dupont St 508 Toronto,1+1,2,Condo Apt Apartment,2250,600-699,W9571890,600,699,649.5,Condo Apartment,Apartment,43.6667421,-79.4482712
377 Ridelle Ave 1716 Toronto,1,1,Condo Apt Apartment,2254,700-799,W9245266,700,799,749.5,Condo Apartment,Apartment,43.7038765,-79.44011549999999
2035 Sheppard Ave E 104 Toronto,1,1,Condo Apt Apartment,2260,500-599,C10421936,500,599,549.5,Condo Apartment,Apartment,43.7753305,-79.3358621
2525 Bathurst St 905 Toronto,1,1,Condo Apt Apartment,2265,0-499,C9387348,0,499,249.5,Condo Apartment,Apartment,43.7059936,-79.4261248
50 Ordnance St 604 Toronto,1,1,Condo Apt Apartment,2270,500-599,C9377298,500,599,549.5,Condo Apartment,Apartment,43.6397778,-79.40995889999999
871 Sheppard Ave W 22 Toronto,1,1,Condo Apt 2-Storey,2275,600-699,C9415999,600,699,649.5,Condo Apartment,2-Storey,43.7519033,-79.45451729999999
2 Rean Dr 1114 Toronto,1,1,Condo Apt Apartment,2275,500-599,C10227804,500,599,549.5,Condo Apartment,Apartment,43.7656347,-79.3831635
500 Queens Quay W 309E Toronto,1,1,Condo Apt Apartment,2275,600-699,C10429816,600,699,649.5,Condo Apartment,Apartment,43.6376392,-79.3951333
55 Ontario St 1306 Toronto,1,1,Condo Apt Apartment,2275,0-499,C9395999,0,499,249.5,Condo Apartment,Apartment,43.653598,-79.3662319
